{
"type": "FeatureCollection",
"name": "VIOLENCIA_INTRAFAMILIAR_2023_2025_PULMON",
"crs": { "type": "name", "properties": { "name": "urn:ogc:def:crs:OGC:1.3:CRS84" } },
"features": [
{ "type": "Feature", "properties": { "DELITO": "VIOLENCIA INTRAFAMILIAR", "SITIO": "SIN INFORMACION", "COMUNA": 13, "NOM_COMUNA": "COMUNA 13", "BARRIO": 1301, "NOM_BARRIO": "Ulpiano Lloreda", "DIRECCION": "76001 Ulpiano Lloreda, Comuna 13, Cali, Valle del Cauca, COL,ULPIANO LLOREDA", "X": -76.48999, "Y": 3.44141, "FECHA_HECH": "2023-01-01", "HORA_HECHO": "06:00", "ESTRATO": 2 }, "geometry": { "type": "Point", "coordinates": [ -76.48999, 3.44141 ] } },
{ "type": "Feature", "properties": { "DELITO": "VIOLENCIA INTRAFAMILIAR", "SITIO": "SIN INFORMACION", "COMUNA": 14, "NOM_COMUNA": "COMUNA 14", "BARRIO": 1401, "NOM_BARRIO": "Alfonso Bonilla Aragón", "DIRECCION": "76001 Calle 89 27D 80, Alfonso Bonilla Aragón, Comuna 14, Cali, Valle del Cauca, COL,ALFONSO BONILLA ARAGÓN", "X": -76.48242, "Y": 3.419032, "FECHA_HECH": "2023-01-01", "HORA_HECHO": "08:00", "ESTRATO": 1 }, "geometry": { "type": "Point", "coordinates": [ -76.48242, 3.419032 ] } },
{ "type": "Feature", "properties": { "DELITO": "VIOLENCIA INTRAFAMILIAR", "SITIO": "SIN INFORMACION", "COMUNA": 13, "NOM_COMUNA": null, "BARRIO": 1314, "NOM_BARRIO": "Villablanca", "DIRECCION": "76001", "X": -76.495176, "Y": 3.429799, "FECHA_HECH": "2023-01-06", "HORA_HECHO": "06:00", "ESTRATO": 2 }, "geometry": { "type": "Point", "coordinates": [ -76.495176, 3.429799 ] } },
{ "type": "Feature", "properties": { "DELITO": "VIOLENCIA INTRAFAMILIAR", "SITIO": "SIN INFORMACION", "COMUNA": 14, "NOM_COMUNA": "COMUNA 14", "BARRIO": 1405, "NOM_BARRIO": "José Manuel Marroquín II", "DIRECCION": "76001 Carrera 26G7 Calle 76 1, José Manuel Marroquin II, Comuna 14, Cali, Valle del Cauca, COL,JOSÉ MANUEL MARROQUIN II", "X": -76.482054, "Y": 3.43256, "FECHA_HECH": "2023-01-07", "HORA_HECHO": "02:00", "ESTRATO": 2 }, "geometry": { "type": "Point", "coordinates": [ -76.482054, 3.43256 ] } },
{ "type": "Feature", "properties": { "DELITO": "VIOLENCIA INTRAFAMILIAR", "SITIO": "SIN INFORMACION", "COMUNA": 13, "NOM_COMUNA": "COMUNA 13", "BARRIO": 1398, "NOM_BARRIO": "El Pondaje", "DIRECCION": "76001 Calle 72 28 73, El Pondaje, Comuna 13, Cali, Valle del Cauca, COL,EL PONDAJE", "X": -76.496254, "Y": 3.429019, "FECHA_HECH": "2023-01-12", "HORA_HECHO": "12:00", "ESTRATO": 2 }, "geometry": { "type": "Point", "coordinates": [ -76.496254, 3.429019 ] } },
{ "type": "Feature", "properties": { "DELITO": "VIOLENCIA INTRAFAMILIAR", "SITIO": "DOMICILIO", "COMUNA": 14, "NOM_COMUNA": "COMUNA 14", "BARRIO": 1401, "NOM_BARRIO": "Alfonso Bonilla Aragón", "DIRECCION": "76001 CALLE 81 26P 160, ALFONSO BONILLA ARAGÓN, COMUNA 14, CALI, VALLE DEL CAUCA", "X": -76.482616, "Y": 3.422485, "FECHA_HECH": "2023-01-14", "HORA_HECHO": "01:00", "ESTRATO": 1 }, "geometry": { "type": "Point", "coordinates": [ -76.482616, 3.422485 ] } },
{ "type": "Feature", "properties": { "DELITO": "VIOLENCIA INTRAFAMILIAR", "SITIO": "SIN INFORMACION", "COMUNA": 13, "NOM_COMUNA": "COMUNA 13", "BARRIO": 1314, "NOM_BARRIO": "Villablanca", "DIRECCION": "76001 Carrera 27B 72B 29, Villa Blanca, Comuna 13, Cali, Valle del Cauca, COL,VILLA BLANCA", "X": -76.494985, "Y": 3.429795, "FECHA_HECH": "2023-01-15", "HORA_HECHO": "15:28", "ESTRATO": 2 }, "geometry": { "type": "Point", "coordinates": [ -76.494985, 3.429795 ] } },
{ "type": "Feature", "properties": { "DELITO": "VIOLENCIA INTRAFAMILIAR", "SITIO": "DOMICILIO", "COMUNA": 14, "NOM_COMUNA": "COMUNA 14", "BARRIO": 1405, "NOM_BARRIO": "José Manuel Marroquín II", "DIRECCION": "76001 DIAGONAL 26G9 CALLE 73 45, JOSÉ MANUEL MARROQUIN II, COMUNA 14, CALI, VALLE DEL CAUCA", "X": -76.483245, "Y": 3.432532, "FECHA_HECH": "2023-01-18", "HORA_HECHO": "20:00", "ESTRATO": 2 }, "geometry": { "type": "Point", "coordinates": [ -76.483245, 3.432532 ] } },
{ "type": "Feature", "properties": { "DELITO": "VIOLENCIA INTRAFAMILIAR", "SITIO": "SIN INFORMACION", "COMUNA": 13, "NOM_COMUNA": "COMUNA 13", "BARRIO": 1309, "NOM_BARRIO": "Lleras Restrepo", "DIRECCION": "76001 Autopista Simón Bolívar 2-98, Lleras Restrepo, Comuna 13, Cali, Valle del Cauca, COL,LLERAS RESTREPO", "X": -76.493912, "Y": 3.436767, "FECHA_HECH": "2023-01-18", "HORA_HECHO": "19:30", "ESTRATO": 1 }, "geometry": { "type": "Point", "coordinates": [ -76.493912, 3.436767 ] } },
{ "type": "Feature", "properties": { "DELITO": "VIOLENCIA INTRAFAMILIAR", "SITIO": "SIN INFORMACION", "COMUNA": 14, "NOM_COMUNA": "COMUNA 14", "BARRIO": 1401, "NOM_BARRIO": "Alfonso Bonilla Aragón", "DIRECCION": "76001 Calle 91 28C 66, Alfonso Bonilla Aragón, Comuna 14, Cali, Valle del Cauca, COL,ALFONSO BONILLA ARAGÓN", "X": -76.48306, "Y": 3.417041, "FECHA_HECH": "2023-01-20", "HORA_HECHO": "10:00", "ESTRATO": 1 }, "geometry": { "type": "Point", "coordinates": [ -76.48306, 3.417041 ] } },
{ "type": "Feature", "properties": { "DELITO": "VIOLENCIA INTRAFAMILIAR", "SITIO": "SIN INFORMACION", "COMUNA": 14, "NOM_COMUNA": "COMUNA 14", "BARRIO": 1406, "NOM_BARRIO": "José Manuel Marroquín I", "DIRECCION": "76001 BARRIO/LOCALIDAD/COMUNA:JOSÉ MANUEL MARROQUIN I/COMUNA 14,CALI/VALLE DEL CAUCA,JOSÉ MANUEL MARROQUIN I", "X": -76.47954, "Y": 3.42349, "FECHA_HECH": "2023-01-21", "HORA_HECHO": "21:00", "ESTRATO": 2 }, "geometry": { "type": "Point", "coordinates": [ -76.47954, 3.42349 ] } },
{ "type": "Feature", "properties": { "DELITO": "VIOLENCIA INTRAFAMILIAR", "SITIO": "DOMICILIO", "COMUNA": 13, "NOM_COMUNA": "COMUNA 13", "BARRIO": 1310, "NOM_BARRIO": "Villa del Lago", "DIRECCION": "76001 CARRERA 26D 72H 46, VILLA DEL LAGO, COMUNA 13, CALI, VALLE DEL CAUCA", "X": -76.490729, "Y": 3.435367, "FECHA_HECH": "2023-01-22", "HORA_HECHO": "21:00", "ESTRATO": 3 }, "geometry": { "type": "Point", "coordinates": [ -76.490729, 3.435367 ] } },
{ "type": "Feature", "properties": { "DELITO": "VIOLENCIA INTRAFAMILIAR", "SITIO": "DOMICILIO", "COMUNA": 14, "NOM_COMUNA": "COMUNA 14", "BARRIO": 1496, "NOM_BARRIO": "Los Naranjos", "DIRECCION": "76001 CARRERA 26G1 76 37, LOS NARANJOS I, COMUNA 14, CALI, VALLE DEL CAUCA", "X": -76.480711, "Y": 3.434163, "FECHA_HECH": "2023-01-23", "HORA_HECHO": "20:00", "ESTRATO": 1 }, "geometry": { "type": "Point", "coordinates": [ -76.480711, 3.434163 ] } },
{ "type": "Feature", "properties": { "DELITO": "VIOLENCIA INTRAFAMILIAR", "SITIO": "SIN INFORMACION", "COMUNA": 13, "NOM_COMUNA": "COMUNA 13", "BARRIO": 1395, "NOM_BARRIO": "Los Lagos", "DIRECCION": "76001 Calle 72U 26I 4, Los Lagos, Comuna 13, Cali, Valle del Cauca, COL,LOS LAGOS", "X": -76.486041, "Y": 3.430059, "FECHA_HECH": "2023-01-26", "HORA_HECHO": "01:00", "ESTRATO": 2 }, "geometry": { "type": "Point", "coordinates": [ -76.486041, 3.430059 ] } },
{ "type": "Feature", "properties": { "DELITO": "VIOLENCIA INTRAFAMILIAR", "SITIO": "SIN INFORMACION", "COMUNA": 13, "NOM_COMUNA": "COMUNA 13", "BARRIO": 1301, "NOM_BARRIO": "Ulpiano Lloreda", "DIRECCION": "76001 Carrera 23 71 86, Ulpiano Lloreda, Comuna 13, Cali, Valle del Cauca, COL,ULPIANO LLOREDA", "X": -76.48941, "Y": 3.443439, "FECHA_HECH": "2023-01-27", "HORA_HECHO": "12:00", "ESTRATO": 2 }, "geometry": { "type": "Point", "coordinates": [ -76.48941, 3.443439 ] } },
{ "type": "Feature", "properties": { "DELITO": "VIOLENCIA INTRAFAMILIAR", "SITIO": "SIN INFORMACION", "COMUNA": 14, "NOM_COMUNA": "COMUNA 14", "BARRIO": 1496, "NOM_BARRIO": "Los Naranjos", "DIRECCION": "76001 Calle 77A 26G1 2, Los Naranjos I, Comuna 14, Cali, Valle del Cauca, COL,LOS NARANJOS I", "X": -76.480108, "Y": 3.433619, "FECHA_HECH": "2023-01-27", "HORA_HECHO": "15:00", "ESTRATO": 1 }, "geometry": { "type": "Point", "coordinates": [ -76.480108, 3.433619 ] } },
{ "type": "Feature", "properties": { "DELITO": "VIOLENCIA INTRAFAMILIAR", "SITIO": "SIN INFORMACION", "COMUNA": 14, "NOM_COMUNA": "COMUNA 14", "BARRIO": 1405, "NOM_BARRIO": "José Manuel Marroquín II", "DIRECCION": "76001 Diagonal 26I2 Transversal 83 73, José Manuel Marroquin II, Comuna 14, Cali, Valle del Cauca, COL,JOSÉ MANUEL MARROQUIN II", "X": -76.480549, "Y": 3.428567, "FECHA_HECH": "2023-01-29", "HORA_HECHO": "00:30", "ESTRATO": 2 }, "geometry": { "type": "Point", "coordinates": [ -76.480549, 3.428567 ] } },
{ "type": "Feature", "properties": { "DELITO": "VIOLENCIA INTRAFAMILIAR", "SITIO": "DOMICILIO", "COMUNA": 13, "NOM_COMUNA": "COMUNA 13", "BARRIO": 1307, "NOM_BARRIO": "Omar Torrijos", "DIRECCION": "76001 CARRERA 26T 72W 22, OMAR TORRIJOS, COMUNA 13, CALI, VALLE DEL CAUCA", "X": -76.48669, "Y": 3.426133, "FECHA_HECH": "2023-01-30", "HORA_HECHO": "20:00", "ESTRATO": 2 }, "geometry": { "type": "Point", "coordinates": [ -76.48669, 3.426133 ] } },
{ "type": "Feature", "properties": { "DELITO": "VIOLENCIA INTRAFAMILIAR", "SITIO": "SIN INFORMACION", "COMUNA": 13, "NOM_COMUNA": "COMUNA 13", "BARRIO": 1398, "NOM_BARRIO": "El Pondaje", "DIRECCION": "76001 Calle 71 27 46, El Pondaje, Comuna 13, Cali, Valle del Cauca, COL,EL PONDAJE", "X": -76.497026, "Y": 3.430509, "FECHA_HECH": "2023-01-30", "HORA_HECHO": "10:00", "ESTRATO": 2 }, "geometry": { "type": "Point", "coordinates": [ -76.497026, 3.430509 ] } },
{ "type": "Feature", "properties": { "DELITO": "VIOLENCIA INTRAFAMILIAR", "SITIO": "SIN INFORMACION", "COMUNA": 13, "NOM_COMUNA": "COMUNA 13", "BARRIO": 1301, "NOM_BARRIO": "Ulpiano Lloreda", "DIRECCION": "76001 Carrera 24, Ulpiano Lloreda, Comuna 13, Cali, Valle del Cauca, COL,ULPIANO LLOREDA", "X": -76.490156, "Y": 3.441906, "FECHA_HECH": "2023-01-30", "HORA_HECHO": "12:34", "ESTRATO": 2 }, "geometry": { "type": "Point", "coordinates": [ -76.490156, 3.441906 ] } },
{ "type": "Feature", "properties": { "DELITO": "VIOLENCIA INTRAFAMILIAR", "SITIO": "DOMICILIO", "COMUNA": 13, "NOM_COMUNA": "COMUNA 13", "BARRIO": 1310, "NOM_BARRIO": "Villa del Lago", "DIRECCION": "76001 VILLA DEL LAGO", "X": -76.49029, "Y": 3.4377, "FECHA_HECH": "2023-02-01", "HORA_HECHO": "17:00", "ESTRATO": 3 }, "geometry": { "type": "Point", "coordinates": [ -76.49029, 3.4377 ] } },
{ "type": "Feature", "properties": { "DELITO": "VIOLENCIA INTRAFAMILIAR", "SITIO": "DOMICILIO", "COMUNA": 14, "NOM_COMUNA": "COMUNA 14", "BARRIO": 1405, "NOM_BARRIO": "José Manuel Marroquín II", "DIRECCION": "76001 DIAGONAL 26G11 CALLE 73 1", "X": -76.483562, "Y": 3.431771, "FECHA_HECH": "2023-02-01", "HORA_HECHO": "09:30", "ESTRATO": 2 }, "geometry": { "type": "Point", "coordinates": [ -76.483562, 3.431771 ] } },
{ "type": "Feature", "properties": { "DELITO": "VIOLENCIA INTRAFAMILIAR", "SITIO": "SIN INFORMACION", "COMUNA": 13, "NOM_COMUNA": "COMUNA 13", "BARRIO": 1398, "NOM_BARRIO": "El Pondaje", "DIRECCION": "76001 Calle 72 28B 3, El Pondaje, Comuna 13, Cali, Valle del Cauca, COL,EL PONDAJE", "X": -76.49639, "Y": 3.42872, "FECHA_HECH": "2023-02-02", "HORA_HECHO": "03:00", "ESTRATO": 2 }, "geometry": { "type": "Point", "coordinates": [ -76.49639, 3.42872 ] } },
{ "type": "Feature", "properties": { "DELITO": "VIOLENCIA INTRAFAMILIAR", "SITIO": "DOMICILIO", "COMUNA": 14, "NOM_COMUNA": "COMUNA 14", "BARRIO": 1406, "NOM_BARRIO": "José Manuel Marroquín I", "DIRECCION": "76001 DIAGONAL 26P1 TRANSVERSAL 87 31, JOSÉ MANUEL MARROQUIN I, COMUNA 14, CALI, VALLE DEL CAUCA", "X": -76.480031, "Y": 3.425691, "FECHA_HECH": "2023-02-02", "HORA_HECHO": "07:30", "ESTRATO": 2 }, "geometry": { "type": "Point", "coordinates": [ -76.480031, 3.425691 ] } },
{ "type": "Feature", "properties": { "DELITO": "VIOLENCIA INTRAFAMILIAR", "SITIO": "ESTABLECIMIENTO DE COMERCIO", "COMUNA": 13, "NOM_COMUNA": "COMUNA 13", "BARRIO": 1398, "NOM_BARRIO": "El Pondaje", "DIRECCION": "76001 CALLE 70 27 1, EL PONDAJE, COMUNA 13, CALI, VALLE DEL CAUCA", "X": -76.497825, "Y": 3.429667, "FECHA_HECH": "2023-02-03", "HORA_HECHO": "10:20", "ESTRATO": 2 }, "geometry": { "type": "Point", "coordinates": [ -76.497825, 3.429667 ] } },
{ "type": "Feature", "properties": { "DELITO": "VIOLENCIA INTRAFAMILIAR", "SITIO": "SIN INFORMACION", "COMUNA": 14, "NOM_COMUNA": "COMUNA 14", "BARRIO": 1401, "NOM_BARRIO": "Alfonso Bonilla Aragón", "DIRECCION": "76001 Calle 78 26P 45, Alfonso Bonilla Aragón, Comuna 14, Cali, Valle del Cauca, COL,ALFONSO BONILLA ARAGÓN", "X": -76.482582, "Y": 3.423814, "FECHA_HECH": "2023-02-04", "HORA_HECHO": "10:30", "ESTRATO": 1 }, "geometry": { "type": "Point", "coordinates": [ -76.482582, 3.423814 ] } },
{ "type": "Feature", "properties": { "DELITO": "VIOLENCIA INTRAFAMILIAR", "SITIO": "SIN INFORMACION", "COMUNA": 14, "NOM_COMUNA": "COMUNA 14", "BARRIO": 1401, "NOM_BARRIO": "Alfonso Bonilla Aragón", "DIRECCION": "76001 Carrera 28 80 25, Alfonso Bonilla Aragón, Comuna 14, Cali, Valle del Cauca, COL,ALFONSO BONILLA ARAGÓN", "X": -76.484962, "Y": 3.420118, "FECHA_HECH": "2023-02-04", "HORA_HECHO": "12:30", "ESTRATO": 1 }, "geometry": { "type": "Point", "coordinates": [ -76.484962, 3.420118 ] } },
{ "type": "Feature", "properties": { "DELITO": "VIOLENCIA INTRAFAMILIAR", "SITIO": "DOMICILIO", "COMUNA": 13, "NOM_COMUNA": "COMUNA 13", "BARRIO": 1310, "NOM_BARRIO": "Villa del Lago", "DIRECCION": "76001 CARRERA 24F, VILLA DEL LAGO, COMUNA 13, CALI, VALLE DEL CAUCA", "X": -76.489125, "Y": 3.438455, "FECHA_HECH": "2023-02-04", "HORA_HECHO": "15:05", "ESTRATO": 3 }, "geometry": { "type": "Point", "coordinates": [ -76.489125, 3.438455 ] } },
{ "type": "Feature", "properties": { "DELITO": "VIOLENCIA INTRAFAMILIAR", "SITIO": "SIN INFORMACION", "COMUNA": 15, "NOM_COMUNA": "COMUNA 14", "BARRIO": 1598, "NOM_BARRIO": "Mojica", "DIRECCION": "76001 Carrera 28D 73, Alfonso Bonilla Aragón, Comuna 14, Cali, Valle del Cauca, COL,ALFONSO BONILLA ARAGÓN", "X": -76.4862, "Y": 3.41837, "FECHA_HECH": "2023-02-04", "HORA_HECHO": "18:00", "ESTRATO": 1 }, "geometry": { "type": "Point", "coordinates": [ -76.4862, 3.41837 ] } },
{ "type": "Feature", "properties": { "DELITO": "VIOLENCIA INTRAFAMILIAR", "SITIO": "SIN INFORMACION", "COMUNA": 13, "NOM_COMUNA": "COMUNA 13", "BARRIO": 1301, "NOM_BARRIO": "Ulpiano Lloreda", "DIRECCION": "76001 Carrera 24C 71 62, Ulpiano Lloreda, Comuna 13, Cali, Valle del Cauca, COL,ULPIANO LLOREDA", "X": -76.491024, "Y": 3.440644, "FECHA_HECH": "2023-02-04", "HORA_HECHO": "03:00", "ESTRATO": 2 }, "geometry": { "type": "Point", "coordinates": [ -76.491024, 3.440644 ] } },
{ "type": "Feature", "properties": { "DELITO": "VIOLENCIA INTRAFAMILIAR", "SITIO": "SIN INFORMACION", "COMUNA": 13, "NOM_COMUNA": "COMUNA 13", "BARRIO": 1307, "NOM_BARRIO": "Omar Torrijos", "DIRECCION": "76001 Calle 72U 27F 3, Omar Torrijos, Comuna 13, Cali, Valle del Cauca, COL,OMAR TORRIJOS", "X": -76.488753, "Y": 3.424596, "FECHA_HECH": "2023-02-05", "HORA_HECHO": "00:10", "ESTRATO": 2 }, "geometry": { "type": "Point", "coordinates": [ -76.488753, 3.424596 ] } },
{ "type": "Feature", "properties": { "DELITO": "VIOLENCIA INTRAFAMILIAR", "SITIO": "SIN INFORMACION", "COMUNA": 13, "NOM_COMUNA": "COMUNA 13", "BARRIO": 1306, "NOM_BARRIO": "Ricardo Balcázar", "DIRECCION": "76001 Carrera 26L Diagonal 72B 1, Ricardo Balcazar, Comuna 13, Cali, Valle del Cauca, COL,RICARDO BALCAZAR", "X": -76.493691, "Y": 3.43187, "FECHA_HECH": "2023-02-06", "HORA_HECHO": "02:00", "ESTRATO": 2 }, "geometry": { "type": "Point", "coordinates": [ -76.493691, 3.43187 ] } },
{ "type": "Feature", "properties": { "DELITO": "VIOLENCIA INTRAFAMILIAR", "SITIO": "SIN INFORMACION", "COMUNA": 14, "NOM_COMUNA": "COMUNA 14", "BARRIO": 1401, "NOM_BARRIO": "Alfonso Bonilla Aragón", "DIRECCION": "76001 Calle 88 27D 31, Alfonso Bonilla Aragón, Comuna 14, Cali, Valle del Cauca, COL,ALFONSO BONILLA ARAGÓN", "X": -76.482402, "Y": 3.419399, "FECHA_HECH": "2023-02-06", "HORA_HECHO": "22:00", "ESTRATO": 1 }, "geometry": { "type": "Point", "coordinates": [ -76.482402, 3.419399 ] } },
{ "type": "Feature", "properties": { "DELITO": "VIOLENCIA INTRAFAMILIAR", "SITIO": "DOMICILIO", "COMUNA": 14, "NOM_COMUNA": "COMUNA 14", "BARRIO": 1401, "NOM_BARRIO": "Alfonso Bonilla Aragón", "DIRECCION": "76001 CALLE 80 26P 88, ALFONSO BONILLA ARAGÓN, COMUNA 14, CALI, VALLE DEL CAUCA", "X": -76.482242, "Y": 3.423381, "FECHA_HECH": "2023-02-06", "HORA_HECHO": "20:00", "ESTRATO": 1 }, "geometry": { "type": "Point", "coordinates": [ -76.482242, 3.423381 ] } },
{ "type": "Feature", "properties": { "DELITO": "VIOLENCIA INTRAFAMILIAR", "SITIO": "SIN INFORMACION", "COMUNA": 14, "NOM_COMUNA": "COMUNA 14", "BARRIO": 1401, "NOM_BARRIO": "Alfonso Bonilla Aragón", "DIRECCION": "76001 Carrera 26P 93, José Manuel Marroquin I, Comuna 14, Cali, Valle del Cauca, COL,ALFONSO BONILLA ARAGÓN", "X": -76.479285, "Y": 3.419685, "FECHA_HECH": "2023-02-06", "HORA_HECHO": "01:15", "ESTRATO": 1 }, "geometry": { "type": "Point", "coordinates": [ -76.479285, 3.419685 ] } },
{ "type": "Feature", "properties": { "DELITO": "VIOLENCIA INTRAFAMILIAR", "SITIO": "SIN INFORMACION", "COMUNA": 15, "NOM_COMUNA": "COMUNA 14", "BARRIO": 1598, "NOM_BARRIO": "Mojica", "DIRECCION": "76001 Carrera 28C1 86 22, Alfonso Bonilla Aragón, Comuna 14, Cali, Valle del Cauca, COL,ALFONSO BONILLA ARAGÓN", "X": -76.484325, "Y": 3.417931, "FECHA_HECH": "2023-02-07", "HORA_HECHO": "05:00", "ESTRATO": 1 }, "geometry": { "type": "Point", "coordinates": [ -76.484325, 3.417931 ] } },
{ "type": "Feature", "properties": { "DELITO": "VIOLENCIA INTRAFAMILIAR", "SITIO": "SIN INFORMACION", "COMUNA": 13, "NOM_COMUNA": "COMUNA 13", "BARRIO": 1305, "NOM_BARRIO": "Los Comuneros II", "DIRECCION": "76001 Calle 72H 28B 3, Los Comuneros II, Comuna 13, Cali, Valle del Cauca, COL,LOS COMUNEROS II", "X": -76.494432, "Y": 3.425965, "FECHA_HECH": "2023-02-08", "HORA_HECHO": "00:00", "ESTRATO": 2 }, "geometry": { "type": "Point", "coordinates": [ -76.494432, 3.425965 ] } },
{ "type": "Feature", "properties": { "DELITO": "VIOLENCIA INTRAFAMILIAR", "SITIO": "SIN INFORMACION", "COMUNA": 13, "NOM_COMUNA": "COMUNA 13", "BARRIO": 1313, "NOM_BARRIO": "Charco Azul", "DIRECCION": "76001 Diagonal 70A, Charco Azul, Comuna 13, Cali, Valle del Cauca, COL,CHARCO AZUL", "X": -76.485982, "Y": 3.441483, "FECHA_HECH": "2023-02-12", "HORA_HECHO": "10:00", "ESTRATO": 1 }, "geometry": { "type": "Point", "coordinates": [ -76.485982, 3.441483 ] } },
{ "type": "Feature", "properties": { "DELITO": "VIOLENCIA INTRAFAMILIAR", "SITIO": "SIN INFORMACION", "COMUNA": 14, "NOM_COMUNA": "COMUNA 14", "BARRIO": 1401, "NOM_BARRIO": "Alfonso Bonilla Aragón", "DIRECCION": "76001 Calle 87 28 32, Alfonso Bonilla Aragón, Comuna 14, Cali, Valle del Cauca, COL,ALFONSO BONILLA ARAGÓN", "X": -76.48361, "Y": 3.41846, "FECHA_HECH": "2023-02-12", "HORA_HECHO": "11:00", "ESTRATO": 1 }, "geometry": { "type": "Point", "coordinates": [ -76.48361, 3.41846 ] } },
{ "type": "Feature", "properties": { "DELITO": "VIOLENCIA INTRAFAMILIAR", "SITIO": "DOMICILIO", "COMUNA": 14, "NOM_COMUNA": "COMUNA 14", "BARRIO": 1401, "NOM_BARRIO": "Alfonso Bonilla Aragón", "DIRECCION": "76001 CARRERA 27C 78, ALFONSO BONILLA ARAGÓN, COMUNA 14, CALI, VALLE DEL CAUCA", "X": -76.484425, "Y": 3.421895, "FECHA_HECH": "2023-02-12", "HORA_HECHO": "21:00", "ESTRATO": 1 }, "geometry": { "type": "Point", "coordinates": [ -76.484425, 3.421895 ] } },
{ "type": "Feature", "properties": { "DELITO": "VIOLENCIA INTRAFAMILIAR", "SITIO": "SIN INFORMACION", "COMUNA": 14, "NOM_COMUNA": "COMUNA 14", "BARRIO": 1405, "NOM_BARRIO": "José Manuel Marroquín II", "DIRECCION": "76001 Diagonal 26H1 Calle 73 10, José Manuel Marroquin II, Comuna 14, Cali, Valle del Cauca, COL,JOSÉ MANUEL MARROQUIN II", "X": -76.48349, "Y": 3.430614, "FECHA_HECH": "2023-02-13", "HORA_HECHO": "22:30", "ESTRATO": 2 }, "geometry": { "type": "Point", "coordinates": [ -76.48349, 3.430614 ] } },
{ "type": "Feature", "properties": { "DELITO": "VIOLENCIA INTRAFAMILIAR", "SITIO": "SIN INFORMACION", "COMUNA": 14, "NOM_COMUNA": "COMUNA 14", "BARRIO": 1401, "NOM_BARRIO": "Alfonso Bonilla Aragón", "DIRECCION": "76001 Calle 96 28 52, Alfonso Bonilla Aragón, Comuna 14, Cali, Valle del Cauca, COL,ALFONSO BONILLA ARAGÓN", "X": -76.48155, "Y": 3.41634, "FECHA_HECH": "2023-02-13", "HORA_HECHO": "06:00", "ESTRATO": 1 }, "geometry": { "type": "Point", "coordinates": [ -76.48155, 3.41634 ] } },
{ "type": "Feature", "properties": { "DELITO": "VIOLENCIA INTRAFAMILIAR", "SITIO": "SIN INFORMACION", "COMUNA": 12, "NOM_COMUNA": "COMUNA 12", "BARRIO": 1211, "NOM_BARRIO": "Sindical", "DIRECCION": "76001 Calle 70 28B 6, Sindical, Comuna 12, Cali, Valle del Cauca, COL,SINDICAL", "X": -76.498884, "Y": 3.428958, "FECHA_HECH": "2023-02-14", "HORA_HECHO": "08:20", "ESTRATO": 3 }, "geometry": { "type": "Point", "coordinates": [ -76.498884, 3.428958 ] } },
{ "type": "Feature", "properties": { "DELITO": "VIOLENCIA INTRAFAMILIAR", "SITIO": "SIN INFORMACION", "COMUNA": 14, "NOM_COMUNA": "COMUNA 14", "BARRIO": 1405, "NOM_BARRIO": "José Manuel Marroquín II", "DIRECCION": "76001 Transversal 82, José Manuel Marroquin II, Comuna 14, Cali, Valle del Cauca, COL,JOSÉ MANUEL MARROQUIN II", "X": -76.481213, "Y": 3.428156, "FECHA_HECH": "2023-02-14", "HORA_HECHO": "22:00", "ESTRATO": 2 }, "geometry": { "type": "Point", "coordinates": [ -76.481213, 3.428156 ] } },
{ "type": "Feature", "properties": { "DELITO": "VIOLENCIA INTRAFAMILIAR", "SITIO": "SIN INFORMACION", "COMUNA": 14, "NOM_COMUNA": "COMUNA 14", "BARRIO": 1406, "NOM_BARRIO": "José Manuel Marroquín I", "DIRECCION": "76001 Diagonal 26P3 Transversal 83 73, José Manuel Marroquin I, Comuna 14, Cali, Valle del Cauca, COL,JOSÉ MANUEL MARROQUIN I", "X": -76.480533, "Y": 3.424951, "FECHA_HECH": "2023-02-14", "HORA_HECHO": "20:00", "ESTRATO": 2 }, "geometry": { "type": "Point", "coordinates": [ -76.480533, 3.424951 ] } },
{ "type": "Feature", "properties": { "DELITO": "VIOLENCIA INTRAFAMILIAR", "SITIO": "SIN INFORMACION", "COMUNA": 14, "NOM_COMUNA": "COMUNA 14", "BARRIO": 1401, "NOM_BARRIO": "Alfonso Bonilla Aragón", "DIRECCION": "76001 Carrera 27D 99 3, Alfonso Bonilla Aragón, Comuna 14, Cali, Valle del Cauca, COL,ALFONSO BONILLA ARAGÓN", "X": -76.479463, "Y": 3.416986, "FECHA_HECH": "2023-02-16", "HORA_HECHO": "14:00", "ESTRATO": 1 }, "geometry": { "type": "Point", "coordinates": [ -76.479463, 3.416986 ] } },
{ "type": "Feature", "properties": { "DELITO": "VIOLENCIA INTRAFAMILIAR", "SITIO": "SIN INFORMACION", "COMUNA": 13, "NOM_COMUNA": "COMUNA 13", "BARRIO": 1301, "NOM_BARRIO": "Ulpiano Lloreda", "DIRECCION": "76001 Carrera 23A 71 1-149, Ulpiano Lloreda, Comuna 13, Cali, Valle del Cauca, COL,ULPIANO LLOREDA", "X": -76.489759, "Y": 3.443122, "FECHA_HECH": "2023-02-16", "HORA_HECHO": "19:00", "ESTRATO": 2 }, "geometry": { "type": "Point", "coordinates": [ -76.489759, 3.443122 ] } },
{ "type": "Feature", "properties": { "DELITO": "VIOLENCIA INTRAFAMILIAR", "SITIO": "SIN INFORMACION", "COMUNA": 14, "NOM_COMUNA": "COMUNA 14", "BARRIO": 1406, "NOM_BARRIO": "José Manuel Marroquín I", "DIRECCION": "76001 Diagonal 26P6 Transversal 87 52, José Manuel Marroquin I, Comuna 14, Cali, Valle del Cauca, COL,JOSÉ MANUEL MARROQUIN I", "X": -76.479855, "Y": 3.423758, "FECHA_HECH": "2023-02-18", "HORA_HECHO": "17:14", "ESTRATO": 2 }, "geometry": { "type": "Point", "coordinates": [ -76.479855, 3.423758 ] } },
{ "type": "Feature", "properties": { "DELITO": "VIOLENCIA INTRAFAMILIAR", "SITIO": "SIN INFORMACION", "COMUNA": 13, "NOM_COMUNA": "COMUNA 13", "BARRIO": 1304, "NOM_BARRIO": "El Poblado II", "DIRECCION": "76001 Carrera 27G 72Y 11, El Poblado II, Comuna 13, Cali, Valle del Cauca, COL,EL POBLADO II", "X": -76.487302, "Y": 3.423041, "FECHA_HECH": "2023-02-18", "HORA_HECHO": "01:30", "ESTRATO": 2 }, "geometry": { "type": "Point", "coordinates": [ -76.487302, 3.423041 ] } },
{ "type": "Feature", "properties": { "DELITO": "VIOLENCIA INTRAFAMILIAR", "SITIO": "SIN INFORMACION", "COMUNA": 13, "NOM_COMUNA": "COMUNA 13", "BARRIO": 1398, "NOM_BARRIO": "El Pondaje", "DIRECCION": "76001 Carrera 27 72, El Pondaje, Comuna 13, Cali, Valle del Cauca, COL,EL PONDAJE", "X": -76.49532, "Y": 3.43064, "FECHA_HECH": "2023-02-20", "HORA_HECHO": "17:00", "ESTRATO": 2 }, "geometry": { "type": "Point", "coordinates": [ -76.49532, 3.43064 ] } },
{ "type": "Feature", "properties": { "DELITO": "VIOLENCIA INTRAFAMILIAR", "SITIO": "SIN INFORMACION", "COMUNA": 13, "NOM_COMUNA": null, "BARRIO": 1395, "NOM_BARRIO": "Los Lagos", "DIRECCION": "76001", "X": -76.487317, "Y": 3.431182, "FECHA_HECH": "2023-02-20", "HORA_HECHO": "00:00", "ESTRATO": 2 }, "geometry": { "type": "Point", "coordinates": [ -76.487317, 3.431182 ] } },
{ "type": "Feature", "properties": { "DELITO": "VIOLENCIA INTRAFAMILIAR", "SITIO": "SIN INFORMACION", "COMUNA": 14, "NOM_COMUNA": "COMUNA 14", "BARRIO": 1402, "NOM_BARRIO": "Alirio Mora Beltrán", "DIRECCION": "76001 Calle 75 26F 11, Alirio Mora Beltrán, Comuna 14, Cali, Valle del Cauca, COL,ALIRIO MORA BELTRÁN", "X": -76.481276, "Y": 3.435417, "FECHA_HECH": "2023-02-21", "HORA_HECHO": "15:13", "ESTRATO": 2 }, "geometry": { "type": "Point", "coordinates": [ -76.481276, 3.435417 ] } },
{ "type": "Feature", "properties": { "DELITO": "VIOLENCIA INTRAFAMILIAR", "SITIO": "SIN INFORMACION", "COMUNA": 14, "NOM_COMUNA": "COMUNA 14", "BARRIO": 1405, "NOM_BARRIO": "José Manuel Marroquín II", "DIRECCION": "76001 Diagonal 26H4 Transversal 87 80, José Manuel Marroquin II, Comuna 14, Cali, Valle del Cauca, COL,JOSÉ MANUEL MARROQUIN II", "X": -76.479696, "Y": 3.429549, "FECHA_HECH": "2023-02-21", "HORA_HECHO": "15:00", "ESTRATO": 2 }, "geometry": { "type": "Point", "coordinates": [ -76.479696, 3.429549 ] } },
{ "type": "Feature", "properties": { "DELITO": "VIOLENCIA INTRAFAMILIAR", "SITIO": "DOMICILIO", "COMUNA": 13, "NOM_COMUNA": "COMUNA 13", "BARRIO": 1395, "NOM_BARRIO": "Los Lagos", "DIRECCION": "76001 CARRERA 26H, MARROQUIN III, COMUNA 13, CALI, VALLE DEL CAUCA", "X": -76.4846, "Y": 3.431395, "FECHA_HECH": "2023-02-22", "HORA_HECHO": "21:00", "ESTRATO": 2 }, "geometry": { "type": "Point", "coordinates": [ -76.4846, 3.431395 ] } },
{ "type": "Feature", "properties": { "DELITO": "VIOLENCIA INTRAFAMILIAR", "SITIO": "SIN INFORMACION", "COMUNA": 14, "NOM_COMUNA": "COMUNA 14", "BARRIO": 1401, "NOM_BARRIO": "Alfonso Bonilla Aragón", "DIRECCION": "76001 Calle 89 27D 40, Alfonso Bonilla Aragón, Comuna 14, Cali, Valle del Cauca, COL,ALFONSO BONILLA ARAGÓN", "X": -76.482267, "Y": 3.419194, "FECHA_HECH": "2023-02-22", "HORA_HECHO": "13:19", "ESTRATO": 1 }, "geometry": { "type": "Point", "coordinates": [ -76.482267, 3.419194 ] } },
{ "type": "Feature", "properties": { "DELITO": "VIOLENCIA INTRAFAMILIAR", "SITIO": "DOMICILIO", "COMUNA": 14, "NOM_COMUNA": "COMUNA 14", "BARRIO": 1402, "NOM_BARRIO": "Alirio Mora Beltrán", "DIRECCION": "76001 CARRERA 26C2, ALIRIO MORA BELTRÁN, COMUNA 14, CALI, VALLE DEL CAUCA", "X": -76.480385, "Y": 3.43607, "FECHA_HECH": "2023-02-25", "HORA_HECHO": "01:00", "ESTRATO": 2 }, "geometry": { "type": "Point", "coordinates": [ -76.480385, 3.43607 ] } },
{ "type": "Feature", "properties": { "DELITO": "VIOLENCIA INTRAFAMILIAR", "SITIO": "DOMICILIO", "COMUNA": 13, "NOM_COMUNA": "COMUNA 13", "BARRIO": 1394, "NOM_BARRIO": "Marroquín III", "DIRECCION": "76001 DIAGONAL 26G8 TRANSVERSAL 72T 25", "X": -76.485538, "Y": 3.432848, "FECHA_HECH": "2023-03-02", "HORA_HECHO": "13:30", "ESTRATO": 2 }, "geometry": { "type": "Point", "coordinates": [ -76.485538, 3.432848 ] } },
{ "type": "Feature", "properties": { "DELITO": "VIOLENCIA INTRAFAMILIAR", "SITIO": "SIN INFORMACION", "COMUNA": 13, "NOM_COMUNA": "COMUNA 13", "BARRIO": 1306, "NOM_BARRIO": "Ricardo Balcázar", "DIRECCION": "76001 Carrera 26I, Ricardo Balcazar, Comuna 13, Cali, Valle del Cauca, COL,RICARDO BALCAZAR", "X": -76.492004, "Y": 3.433332, "FECHA_HECH": "2023-03-02", "HORA_HECHO": "00:00", "ESTRATO": 2 }, "geometry": { "type": "Point", "coordinates": [ -76.492004, 3.433332 ] } },
{ "type": "Feature", "properties": { "DELITO": "VIOLENCIA INTRAFAMILIAR", "SITIO": "SIN INFORMACION", "COMUNA": 13, "NOM_COMUNA": "COMUNA 13", "BARRIO": 1304, "NOM_BARRIO": "El Poblado II", "DIRECCION": "76001 Carrera 28 72Z 67, El Poblado II, Comuna 13, Cali, Valle del Cauca, COL,EL POBLADO II", "X": -76.486998, "Y": 3.422367, "FECHA_HECH": "2023-03-04", "HORA_HECHO": "10:15", "ESTRATO": 2 }, "geometry": { "type": "Point", "coordinates": [ -76.486998, 3.422367 ] } },
{ "type": "Feature", "properties": { "DELITO": "VIOLENCIA INTRAFAMILIAR", "SITIO": "SIN INFORMACION", "COMUNA": 14, "NOM_COMUNA": "COMUNA 14", "BARRIO": 1401, "NOM_BARRIO": "Alfonso Bonilla Aragón", "DIRECCION": "76001 Calle 93 27D 39, Alfonso Bonilla Aragón, Comuna 14, Cali, Valle del Cauca, COL,ALFONSO BONILLA ARAGÓN", "X": -76.481017, "Y": 3.418014, "FECHA_HECH": "2023-03-05", "HORA_HECHO": "15:30", "ESTRATO": 1 }, "geometry": { "type": "Point", "coordinates": [ -76.481017, 3.418014 ] } },
{ "type": "Feature", "properties": { "DELITO": "VIOLENCIA INTRAFAMILIAR", "SITIO": "SIN INFORMACION", "COMUNA": 14, "NOM_COMUNA": "COMUNA 14", "BARRIO": 1401, "NOM_BARRIO": "Alfonso Bonilla Aragón", "DIRECCION": "76001 Carrera 28C, Alfonso Bonilla Aragón, Comuna 14, Cali, Valle del Cauca, COL,ALFONSO BONILLA ARAGÓN", "X": -76.486162, "Y": 3.419258, "FECHA_HECH": "2023-03-05", "HORA_HECHO": "19:30", "ESTRATO": 1 }, "geometry": { "type": "Point", "coordinates": [ -76.486162, 3.419258 ] } },
{ "type": "Feature", "properties": { "DELITO": "VIOLENCIA INTRAFAMILIAR", "SITIO": "DOMICILIO", "COMUNA": 13, "NOM_COMUNA": "COMUNA 13", "BARRIO": 1313, "NOM_BARRIO": "Charco Azul", "DIRECCION": "76001 CARRERA 22A DIAGONAL 70, CHARCO AZUL, COMUNA 13, CALI, VALLE DEL CAUCA", "X": -76.486005, "Y": 3.4419, "FECHA_HECH": "2023-03-05", "HORA_HECHO": "16:00", "ESTRATO": 1 }, "geometry": { "type": "Point", "coordinates": [ -76.486005, 3.4419 ] } },
{ "type": "Feature", "properties": { "DELITO": "VIOLENCIA INTRAFAMILIAR", "SITIO": "VIA PUBLICA", "COMUNA": 13, "NOM_COMUNA": "COMUNA 13", "BARRIO": 1310, "NOM_BARRIO": "Villa del Lago", "DIRECCION": "76001 CARRERA 25C D70B 74F, VILLA DEL LAGO, COMUNA 13, CALI, VALLE DEL CAUCA", "X": -76.489857, "Y": 3.437859, "FECHA_HECH": "2023-03-05", "HORA_HECHO": "07:50", "ESTRATO": 3 }, "geometry": { "type": "Point", "coordinates": [ -76.489857, 3.437859 ] } },
{ "type": "Feature", "properties": { "DELITO": "VIOLENCIA INTRAFAMILIAR", "SITIO": "SIN INFORMACION", "COMUNA": 13, "NOM_COMUNA": "COMUNA 13", "BARRIO": 1306, "NOM_BARRIO": "Ricardo Balcázar", "DIRECCION": "76001 Calle 72D, Ricardo Balcazar, Comuna 13, Cali, Valle del Cauca, COL,RICARDO BALCAZAR", "X": -76.49232, "Y": 3.435557, "FECHA_HECH": "2023-03-06", "HORA_HECHO": "13:00", "ESTRATO": 2 }, "geometry": { "type": "Point", "coordinates": [ -76.49232, 3.435557 ] } },
{ "type": "Feature", "properties": { "DELITO": "VIOLENCIA INTRAFAMILIAR", "SITIO": "DOMICILIO", "COMUNA": 13, "NOM_COMUNA": "COMUNA 13", "BARRIO": 1305, "NOM_BARRIO": "Los Comuneros II", "DIRECCION": "76001 CALLE 72P 28A 42, LOS COMUNEROS II, COMUNA 13, CALI, VALLE DEL CAUCA", "X": -76.492261, "Y": 3.424473, "FECHA_HECH": "2023-03-06", "HORA_HECHO": "20:30", "ESTRATO": 2 }, "geometry": { "type": "Point", "coordinates": [ -76.492261, 3.424473 ] } },
{ "type": "Feature", "properties": { "DELITO": "VIOLENCIA INTRAFAMILIAR", "SITIO": "SIN INFORMACION", "COMUNA": 13, "NOM_COMUNA": "COMUNA 13", "BARRIO": 1397, "NOM_BARRIO": "Sector Laguna del Pondaje", "DIRECCION": "76001 Carrera 26 72U, Laguna del Pondaje, Comuna 13, Cali, Valle del Cauca, COL,LAGUNA DEL PONDAJE", "X": -76.48453, "Y": 3.44008, "FECHA_HECH": "2023-03-07", "HORA_HECHO": "05:00", "ESTRATO": 1 }, "geometry": { "type": "Point", "coordinates": [ -76.48453, 3.44008 ] } },
{ "type": "Feature", "properties": { "DELITO": "VIOLENCIA INTRAFAMILIAR", "SITIO": "SIN INFORMACION", "COMUNA": 13, "NOM_COMUNA": "COMUNA 13", "BARRIO": 1398, "NOM_BARRIO": "El Pondaje", "DIRECCION": "76001 Carrera 26P 71A 81, El Pondaje, Comuna 13, Cali, Valle del Cauca, COL,EL PONDAJE", "X": -76.495921, "Y": 3.431095, "FECHA_HECH": "2023-03-07", "HORA_HECHO": "13:00", "ESTRATO": 2 }, "geometry": { "type": "Point", "coordinates": [ -76.495921, 3.431095 ] } },
{ "type": "Feature", "properties": { "DELITO": "VIOLENCIA INTRAFAMILIAR", "SITIO": "SIN INFORMACION", "COMUNA": 14, "NOM_COMUNA": "COMUNA 14", "BARRIO": 1405, "NOM_BARRIO": "José Manuel Marroquín II", "DIRECCION": "76001 Diagonal 26H3, José Manuel Marroquin II, Comuna 14, Cali, Valle del Cauca, COL,JOSÉ MANUEL MARROQUIN II", "X": -76.480779, "Y": 3.429988, "FECHA_HECH": "2023-03-07", "HORA_HECHO": "18:00", "ESTRATO": 2 }, "geometry": { "type": "Point", "coordinates": [ -76.480779, 3.429988 ] } },
{ "type": "Feature", "properties": { "DELITO": "VIOLENCIA INTRAFAMILIAR", "SITIO": "DOMICILIO", "COMUNA": 14, "NOM_COMUNA": "COMUNA 14", "BARRIO": 1401, "NOM_BARRIO": "Alfonso Bonilla Aragón", "DIRECCION": "76001 CARRERA 27D CON TRANSVERSAL 103, ALFONSO BONILLA ARAGÓN, COMUNA 14, CALI, VALLE DEL CAUCA", "X": -76.47908, "Y": 3.41654, "FECHA_HECH": "2023-03-08", "HORA_HECHO": "14:00", "ESTRATO": 1 }, "geometry": { "type": "Point", "coordinates": [ -76.47908, 3.41654 ] } },
{ "type": "Feature", "properties": { "DELITO": "VIOLENCIA INTRAFAMILIAR", "SITIO": "SIN INFORMACION", "COMUNA": 13, "NOM_COMUNA": "COMUNA 13", "BARRIO": 1304, "NOM_BARRIO": "El Poblado II", "DIRECCION": "76001 Carrera 28-2 72W 64, El Poblado II, Comuna 13, Cali, Valle del Cauca, COL,EL POBLADO II", "X": -76.488573, "Y": 3.422752, "FECHA_HECH": "2023-03-08", "HORA_HECHO": "07:15", "ESTRATO": 2 }, "geometry": { "type": "Point", "coordinates": [ -76.488573, 3.422752 ] } },
{ "type": "Feature", "properties": { "DELITO": "VIOLENCIA INTRAFAMILIAR", "SITIO": "SIN INFORMACION", "COMUNA": 13, "NOM_COMUNA": "COMUNA 13", "BARRIO": 1307, "NOM_BARRIO": "Omar Torrijos", "DIRECCION": "76001 Calle 72X 27 4, Omar Torrijos, Comuna 13, Cali, Valle del Cauca, COL,OMAR TORRIJOS", "X": -76.486449, "Y": 3.425294, "FECHA_HECH": "2023-03-08", "HORA_HECHO": "15:20", "ESTRATO": 2 }, "geometry": { "type": "Point", "coordinates": [ -76.486449, 3.425294 ] } },
{ "type": "Feature", "properties": { "DELITO": "VIOLENCIA INTRAFAMILIAR", "SITIO": "SIN INFORMACION", "COMUNA": 13, "NOM_COMUNA": "COMUNA 13", "BARRIO": 1394, "NOM_BARRIO": "Marroquín III", "DIRECCION": "76001 Diagonal 26G4 Transversal 72U 72, Marroquin III, Comuna 13, Cali, Valle del Cauca, COL,MARROQUIN III", "X": -76.484557, "Y": 3.434207, "FECHA_HECH": "2023-03-08", "HORA_HECHO": "16:03", "ESTRATO": 2 }, "geometry": { "type": "Point", "coordinates": [ -76.484557, 3.434207 ] } },
{ "type": "Feature", "properties": { "DELITO": "VIOLENCIA INTRAFAMILIAR", "SITIO": "SIN INFORMACION", "COMUNA": 14, "NOM_COMUNA": "COMUNA 14", "BARRIO": 1405, "NOM_BARRIO": "José Manuel Marroquín II", "DIRECCION": "76001 Diagonal 26H1 Transversal 80 24, José Manuel Marroquin II, Comuna 14, Cali, Valle del Cauca, COL,JOSÉ MANUEL MARROQUIN II", "X": -76.48172, "Y": 3.430625, "FECHA_HECH": "2023-03-09", "HORA_HECHO": "10:34", "ESTRATO": 2 }, "geometry": { "type": "Point", "coordinates": [ -76.48172, 3.430625 ] } },
{ "type": "Feature", "properties": { "DELITO": "VIOLENCIA INTRAFAMILIAR", "SITIO": "SIN INFORMACION", "COMUNA": 14, "NOM_COMUNA": "COMUNA 14", "BARRIO": 1401, "NOM_BARRIO": "Alfonso Bonilla Aragón", "DIRECCION": "76001 Calle 96 28 25, Alfonso Bonilla Aragón, Comuna 14, Cali, Valle del Cauca, COL,ALFONSO BONILLA ARAGÓN", "X": -76.481357, "Y": 3.416376, "FECHA_HECH": "2023-03-10", "HORA_HECHO": "05:00", "ESTRATO": 1 }, "geometry": { "type": "Point", "coordinates": [ -76.481357, 3.416376 ] } },
{ "type": "Feature", "properties": { "DELITO": "VIOLENCIA INTRAFAMILIAR", "SITIO": "SIN INFORMACION", "COMUNA": 14, "NOM_COMUNA": "COMUNA 14", "BARRIO": 1406, "NOM_BARRIO": "José Manuel Marroquín I", "DIRECCION": "76001 Diagonal 26P3, José Manuel Marroquin I, Comuna 14, Cali, Valle del Cauca, COL,JOSÉ MANUEL MARROQUIN I", "X": -76.47992, "Y": 3.424976, "FECHA_HECH": "2023-03-10", "HORA_HECHO": "16:00", "ESTRATO": 2 }, "geometry": { "type": "Point", "coordinates": [ -76.47992, 3.424976 ] } },
{ "type": "Feature", "properties": { "DELITO": "VIOLENCIA INTRAFAMILIAR", "SITIO": "SIN INFORMACION", "COMUNA": 13, "NOM_COMUNA": "COMUNA 13", "BARRIO": 1397, "NOM_BARRIO": "Sector Laguna del Pondaje", "DIRECCION": "76001 Carrera 28 72F 81, Laguna del Pondaje, Comuna 13, Cali, Valle del Cauca, COL,LAGUNA DEL PONDAJE", "X": -76.493674, "Y": 3.428168, "FECHA_HECH": "2023-03-12", "HORA_HECHO": "19:45", "ESTRATO": 1 }, "geometry": { "type": "Point", "coordinates": [ -76.493674, 3.428168 ] } },
{ "type": "Feature", "properties": { "DELITO": "VIOLENCIA INTRAFAMILIAR", "SITIO": "SIN INFORMACION", "COMUNA": 13, "NOM_COMUNA": "COMUNA 13", "BARRIO": 1395, "NOM_BARRIO": "Los Lagos", "DIRECCION": "76001 Calle 72W 26M 1, Los Lagos, Comuna 13, Cali, Valle del Cauca, COL,LOS LAGOS", "X": -76.486069, "Y": 3.427732, "FECHA_HECH": "2023-03-12", "HORA_HECHO": "16:00", "ESTRATO": 2 }, "geometry": { "type": "Point", "coordinates": [ -76.486069, 3.427732 ] } },
{ "type": "Feature", "properties": { "DELITO": "VIOLENCIA INTRAFAMILIAR", "SITIO": "SIN INFORMACION", "COMUNA": 14, "NOM_COMUNA": "COMUNA 14", "BARRIO": 1405, "NOM_BARRIO": "José Manuel Marroquín II", "DIRECCION": "76001 Transversal 77, José Manuel Marroquin II, Comuna 14, Cali, Valle del Cauca, COL,JOSÉ MANUEL MARROQUIN II", "X": -76.482619, "Y": 3.429699, "FECHA_HECH": "2023-03-12", "HORA_HECHO": "14:23", "ESTRATO": 2 }, "geometry": { "type": "Point", "coordinates": [ -76.482619, 3.429699 ] } },
{ "type": "Feature", "properties": { "DELITO": "VIOLENCIA INTRAFAMILIAR", "SITIO": "DOMICILIO", "COMUNA": 14, "NOM_COMUNA": "COMUNA 14", "BARRIO": 1401, "NOM_BARRIO": "Alfonso Bonilla Aragón", "DIRECCION": "76001 CARRERA 27A 91 127, ALFONSO BONILLA ARAGÓN, COMUNA 14, CALI, VALLE DEL CAUCA", "X": -76.480117, "Y": 3.418973, "FECHA_HECH": "2023-03-12", "HORA_HECHO": "17:00", "ESTRATO": 1 }, "geometry": { "type": "Point", "coordinates": [ -76.480117, 3.418973 ] } },
{ "type": "Feature", "properties": { "DELITO": "VIOLENCIA INTRAFAMILIAR", "SITIO": "SIN INFORMACION", "COMUNA": 13, "NOM_COMUNA": "COMUNA 13", "BARRIO": 1306, "NOM_BARRIO": "Ricardo Balcázar", "DIRECCION": "76001 Diagonal 72C Carrera 26H2 26, Ricardo Balcazar, Comuna 13, Cali, Valle del Cauca, COL,RICARDO BALCAZAR", "X": -76.491116, "Y": 3.433193, "FECHA_HECH": "2023-03-12", "HORA_HECHO": "09:00", "ESTRATO": 2 }, "geometry": { "type": "Point", "coordinates": [ -76.491116, 3.433193 ] } },
{ "type": "Feature", "properties": { "DELITO": "VIOLENCIA INTRAFAMILIAR", "SITIO": "SIN INFORMACION", "COMUNA": 14, "NOM_COMUNA": "COMUNA 14", "BARRIO": 1401, "NOM_BARRIO": "Alfonso Bonilla Aragón", "DIRECCION": "76001 Calle 90 con Carrera 28, Alfonso Bonilla Aragón, Comuna 14, Cali, Valle del Cauca, COL,ALFONSO BONILLA ARAGÓN", "X": -76.48282, "Y": 3.41804, "FECHA_HECH": "2023-03-13", "HORA_HECHO": "21:00", "ESTRATO": 1 }, "geometry": { "type": "Point", "coordinates": [ -76.48282, 3.41804 ] } },
{ "type": "Feature", "properties": { "DELITO": "VIOLENCIA INTRAFAMILIAR", "SITIO": "DOMICILIO", "COMUNA": 13, "NOM_COMUNA": "COMUNA 13", "BARRIO": 1306, "NOM_BARRIO": "Ricardo Balcázar", "DIRECCION": "76001 CARRERA 26L DIAGONAL 70, RICARDO BALCAZAR, COMUNA 13, CALI, VALLE DEL CAUCA", "X": -76.494745, "Y": 3.43379, "FECHA_HECH": "2023-03-16", "HORA_HECHO": "14:50", "ESTRATO": 2 }, "geometry": { "type": "Point", "coordinates": [ -76.494745, 3.43379 ] } },
{ "type": "Feature", "properties": { "DELITO": "VIOLENCIA INTRAFAMILIAR", "SITIO": "DOMICILIO", "COMUNA": 13, "NOM_COMUNA": "COMUNA 13", "BARRIO": 1306, "NOM_BARRIO": "Ricardo Balcázar", "DIRECCION": "76001 CALLE 72H 26H 27, RICARDO BALCAZAR, COMUNA 13, CALI, VALLE DEL CAUCA", "X": -76.491841, "Y": 3.434947, "FECHA_HECH": "2023-03-16", "HORA_HECHO": "10:27", "ESTRATO": 2 }, "geometry": { "type": "Point", "coordinates": [ -76.491841, 3.434947 ] } },
{ "type": "Feature", "properties": { "DELITO": "VIOLENCIA INTRAFAMILIAR", "SITIO": "DOMICILIO", "COMUNA": 14, "NOM_COMUNA": "COMUNA 14", "BARRIO": 1401, "NOM_BARRIO": "Alfonso Bonilla Aragón", "DIRECCION": "76001 CARRERA 27B 91 59, ALFONSO BONILLA ARAGÓN, COMUNA 14, CALI, VALLE DEL CAUCA", "X": -76.480627, "Y": 3.419005, "FECHA_HECH": "2023-03-16", "HORA_HECHO": "22:00", "ESTRATO": 1 }, "geometry": { "type": "Point", "coordinates": [ -76.480627, 3.419005 ] } },
{ "type": "Feature", "properties": { "DELITO": "VIOLENCIA INTRAFAMILIAR", "SITIO": "SIN INFORMACION", "COMUNA": 13, "NOM_COMUNA": "COMUNA 13", "BARRIO": 1394, "NOM_BARRIO": "Marroquín III", "DIRECCION": "76001 BARRIO/LOCALIDAD/COMUNA:MARROQUIN III/COMUNA 13,CALI/VALLE DEL CAUCA,MARROQUIN III", "X": -76.485679, "Y": 3.433172, "FECHA_HECH": "2023-03-17", "HORA_HECHO": "23:00", "ESTRATO": 2 }, "geometry": { "type": "Point", "coordinates": [ -76.485679, 3.433172 ] } },
{ "type": "Feature", "properties": { "DELITO": "VIOLENCIA INTRAFAMILIAR", "SITIO": "SIN INFORMACION", "COMUNA": 13, "NOM_COMUNA": "COMUNA 13", "BARRIO": 1306, "NOM_BARRIO": "Ricardo Balcázar", "DIRECCION": "76001 Diagonal 71B, Ricardo Balcazar, Comuna 13, Cali, Valle del Cauca, COL,RICARDO BALCAZAR", "X": -76.493607, "Y": 3.433107, "FECHA_HECH": "2023-03-18", "HORA_HECHO": "20:26", "ESTRATO": 2 }, "geometry": { "type": "Point", "coordinates": [ -76.493607, 3.433107 ] } },
{ "type": "Feature", "properties": { "DELITO": "VIOLENCIA INTRAFAMILIAR", "SITIO": "SIN INFORMACION", "COMUNA": 14, "NOM_COMUNA": "COMUNA 14", "BARRIO": 1405, "NOM_BARRIO": "José Manuel Marroquín II", "DIRECCION": "76001 Diagonal 26I3, José Manuel Marroquin II, Comuna 14, Cali, Valle del Cauca, COL,JOSÉ MANUEL MARROQUIN II", "X": -76.478311, "Y": 3.428253, "FECHA_HECH": "2023-03-18", "HORA_HECHO": "20:00", "ESTRATO": 2 }, "geometry": { "type": "Point", "coordinates": [ -76.478311, 3.428253 ] } },
{ "type": "Feature", "properties": { "DELITO": "VIOLENCIA INTRAFAMILIAR", "SITIO": "SIN INFORMACION", "COMUNA": 13, "NOM_COMUNA": "COMUNA 13", "BARRIO": 1314, "NOM_BARRIO": "Villablanca", "DIRECCION": "76001 Carrera 28 BIS 5, Villa Blanca, Comuna 13, Cali, Valle del Cauca, COL,VILLA BLANCA", "X": -76.49579, "Y": 3.42913, "FECHA_HECH": "2023-03-19", "HORA_HECHO": "02:00", "ESTRATO": 2 }, "geometry": { "type": "Point", "coordinates": [ -76.49579, 3.42913 ] } },
{ "type": "Feature", "properties": { "DELITO": "VIOLENCIA INTRAFAMILIAR", "SITIO": "SIN INFORMACION", "COMUNA": 14, "NOM_COMUNA": "COMUNA 14", "BARRIO": 1401, "NOM_BARRIO": "Alfonso Bonilla Aragón", "DIRECCION": "76001 Carrera 27F 73 72, Alfonso Bonilla Aragón, Comuna 14, Cali, Valle del Cauca, COL,ALFONSO BONILLA ARAGÓN", "X": -76.485715, "Y": 3.42161, "FECHA_HECH": "2023-03-19", "HORA_HECHO": "07:00", "ESTRATO": 1 }, "geometry": { "type": "Point", "coordinates": [ -76.485715, 3.42161 ] } },
{ "type": "Feature", "properties": { "DELITO": "VIOLENCIA INTRAFAMILIAR", "SITIO": "SIN INFORMACION", "COMUNA": 14, "NOM_COMUNA": "COMUNA 14", "BARRIO": 1405, "NOM_BARRIO": "José Manuel Marroquín II", "DIRECCION": "76001 Diagonal 26G2, José Manuel Marroquin II, Comuna 14, Cali, Valle del Cauca, COL,JOSÉ MANUEL MARROQUIN II", "X": -76.482578, "Y": 3.435005, "FECHA_HECH": "2023-03-19", "HORA_HECHO": "08:00", "ESTRATO": 2 }, "geometry": { "type": "Point", "coordinates": [ -76.482578, 3.435005 ] } },
{ "type": "Feature", "properties": { "DELITO": "VIOLENCIA INTRAFAMILIAR", "SITIO": "SIN INFORMACION", "COMUNA": 14, "NOM_COMUNA": null, "BARRIO": 1401, "NOM_BARRIO": "Alfonso Bonilla Aragón", "DIRECCION": "76001", "X": -76.482647, "Y": 3.420933, "FECHA_HECH": "2023-03-19", "HORA_HECHO": "01:30", "ESTRATO": 1 }, "geometry": { "type": "Point", "coordinates": [ -76.482647, 3.420933 ] } },
{ "type": "Feature", "properties": { "DELITO": "VIOLENCIA INTRAFAMILIAR", "SITIO": "SIN INFORMACION", "COMUNA": 13, "NOM_COMUNA": "COMUNA 13", "BARRIO": 1314, "NOM_BARRIO": "Villablanca", "DIRECCION": "76001 Carrera 26L, Villa Blanca, Comuna 13, Cali, Valle del Cauca, COL,VILLA BLANCA", "X": -76.493274, "Y": 3.430896, "FECHA_HECH": "2023-03-20", "HORA_HECHO": "19:30", "ESTRATO": 2 }, "geometry": { "type": "Point", "coordinates": [ -76.493274, 3.430896 ] } },
{ "type": "Feature", "properties": { "DELITO": "VIOLENCIA INTRAFAMILIAR", "SITIO": "SIN INFORMACION", "COMUNA": 14, "NOM_COMUNA": "COMUNA 14", "BARRIO": 1405, "NOM_BARRIO": "José Manuel Marroquín II", "DIRECCION": "76001 Diagonal 26G2 Calle 73 25, José Manuel Marroquin II, Comuna 14, Cali, Valle del Cauca, COL,JOSÉ MANUEL MARROQUIN II", "X": -76.483481, "Y": 3.435062, "FECHA_HECH": "2023-03-22", "HORA_HECHO": "19:00", "ESTRATO": 2 }, "geometry": { "type": "Point", "coordinates": [ -76.483481, 3.435062 ] } },
{ "type": "Feature", "properties": { "DELITO": "VIOLENCIA INTRAFAMILIAR", "SITIO": "SIN INFORMACION", "COMUNA": 13, "NOM_COMUNA": "COMUNA 13", "BARRIO": 1398, "NOM_BARRIO": "El Pondaje", "DIRECCION": "76001 Calle 70 28B 77, El Pondaje, Comuna 13, Cali, Valle del Cauca, COL,EL PONDAJE", "X": -76.497886, "Y": 3.429543, "FECHA_HECH": "2023-03-23", "HORA_HECHO": "20:00", "ESTRATO": 2 }, "geometry": { "type": "Point", "coordinates": [ -76.497886, 3.429543 ] } },
{ "type": "Feature", "properties": { "DELITO": "VIOLENCIA INTRAFAMILIAR", "SITIO": "SIN INFORMACION", "COMUNA": 13, "NOM_COMUNA": "COMUNA 13", "BARRIO": 1398, "NOM_BARRIO": "El Pondaje", "DIRECCION": "76001 Calle 70A 28B 77, El Pondaje, Comuna 13, Cali, Valle del Cauca, COL,EL PONDAJE", "X": -76.49783, "Y": 3.42874, "FECHA_HECH": "2023-03-23", "HORA_HECHO": "20:00", "ESTRATO": 2 }, "geometry": { "type": "Point", "coordinates": [ -76.49783, 3.42874 ] } },
{ "type": "Feature", "properties": { "DELITO": "VIOLENCIA INTRAFAMILIAR", "SITIO": "SIN INFORMACION", "COMUNA": 14, "NOM_COMUNA": "COMUNA 14", "BARRIO": 1406, "NOM_BARRIO": "José Manuel Marroquín I", "DIRECCION": "76001 Transversal 83, José Manuel Marroquin I, Comuna 14, Cali, Valle del Cauca, COL,JOSÉ MANUEL MARROQUIN I", "X": -76.481089, "Y": 3.423871, "FECHA_HECH": "2023-03-24", "HORA_HECHO": "00:10", "ESTRATO": 2 }, "geometry": { "type": "Point", "coordinates": [ -76.481089, 3.423871 ] } },
{ "type": "Feature", "properties": { "DELITO": "VIOLENCIA INTRAFAMILIAR", "SITIO": "SIN INFORMACION", "COMUNA": 14, "NOM_COMUNA": "COMUNA 14", "BARRIO": 1406, "NOM_BARRIO": "José Manuel Marroquín I", "DIRECCION": "76001 Diagonal 26P6 Transversal 96 17, José Manuel Marroquin I, Comuna 14, Cali, Valle del Cauca, COL,JOSÉ MANUEL MARROQUIN I", "X": -76.478449, "Y": 3.423896, "FECHA_HECH": "2023-03-26", "HORA_HECHO": "02:00", "ESTRATO": 2 }, "geometry": { "type": "Point", "coordinates": [ -76.478449, 3.423896 ] } },
{ "type": "Feature", "properties": { "DELITO": "VIOLENCIA INTRAFAMILIAR", "SITIO": "DOMICILIO", "COMUNA": 13, "NOM_COMUNA": "COMUNA 13", "BARRIO": 1397, "NOM_BARRIO": "Sector Laguna del Pondaje", "DIRECCION": "76001 CARRERA 27D 72F 32, LAGUNA DEL PONDAJE, COMUNA 13, CALI, VALLE DEL CAUCA", "X": -76.49377, "Y": 3.428546, "FECHA_HECH": "2023-03-26", "HORA_HECHO": "12:00", "ESTRATO": 1 }, "geometry": { "type": "Point", "coordinates": [ -76.49377, 3.428546 ] } },
{ "type": "Feature", "properties": { "DELITO": "VIOLENCIA INTRAFAMILIAR", "SITIO": "SIN INFORMACION", "COMUNA": 13, "NOM_COMUNA": "COMUNA 13", "BARRIO": 1306, "NOM_BARRIO": "Ricardo Balcázar", "DIRECCION": "76001 Carrera 26I 72H 5, Ricardo Balcazar, Comuna 13, Cali, Valle del Cauca, COL,RICARDO BALCAZAR", "X": -76.492545, "Y": 3.434518, "FECHA_HECH": "2023-03-28", "HORA_HECHO": "11:30", "ESTRATO": 2 }, "geometry": { "type": "Point", "coordinates": [ -76.492545, 3.434518 ] } },
{ "type": "Feature", "properties": { "DELITO": "VIOLENCIA INTRAFAMILIAR", "SITIO": "SIN INFORMACION", "COMUNA": 14, "NOM_COMUNA": "COMUNA 14", "BARRIO": 1401, "NOM_BARRIO": "Alfonso Bonilla Aragón", "DIRECCION": "76001 Calle 85 27 37, Alfonso Bonilla Aragón, Comuna 14, Cali, Valle del Cauca, COL,ALFONSO BONILLA ARAGÓN", "X": -76.482094, "Y": 3.420899, "FECHA_HECH": "2023-03-28", "HORA_HECHO": "18:00", "ESTRATO": 1 }, "geometry": { "type": "Point", "coordinates": [ -76.482094, 3.420899 ] } },
{ "type": "Feature", "properties": { "DELITO": "VIOLENCIA INTRAFAMILIAR", "SITIO": "DOMICILIO", "COMUNA": 13, "NOM_COMUNA": "COMUNA 13", "BARRIO": 1397, "NOM_BARRIO": "Sector Laguna del Pondaje", "DIRECCION": "76001 CARRERA 27D 72F 32, LAGUNA DEL PONDAJE, COMUNA 13, CALI, VALLE DEL CAUCA", "X": -76.49377, "Y": 3.428546, "FECHA_HECH": "2023-03-29", "HORA_HECHO": "16:00", "ESTRATO": 1 }, "geometry": { "type": "Point", "coordinates": [ -76.49377, 3.428546 ] } },
{ "type": "Feature", "properties": { "DELITO": "VIOLENCIA INTRAFAMILIAR", "SITIO": "SIN INFORMACION", "COMUNA": 13, "NOM_COMUNA": "COMUNA 13", "BARRIO": 1307, "NOM_BARRIO": "Omar Torrijos", "DIRECCION": "76001 Calle 72W1 27 92, Omar Torrijos, Comuna 13, Cali, Valle del Cauca, COL,OMAR TORRIJOS", "X": -76.487471, "Y": 3.425141, "FECHA_HECH": "2023-03-30", "HORA_HECHO": "22:20", "ESTRATO": 2 }, "geometry": { "type": "Point", "coordinates": [ -76.487471, 3.425141 ] } },
{ "type": "Feature", "properties": { "DELITO": "VIOLENCIA INTRAFAMILIAR", "SITIO": "DOMICILIO", "COMUNA": 14, "NOM_COMUNA": "COMUNA 14", "BARRIO": 1401, "NOM_BARRIO": "Alfonso Bonilla Aragón", "DIRECCION": "76001 CARRERA 28 89 30, ALFONSO BONILLA ARAGÓN, COMUNA 14, CALI, VALLE DEL CAUCA", "X": -76.483054, "Y": 3.418183, "FECHA_HECH": "2023-03-30", "HORA_HECHO": "17:30", "ESTRATO": 1 }, "geometry": { "type": "Point", "coordinates": [ -76.483054, 3.418183 ] } },
{ "type": "Feature", "properties": { "DELITO": "VIOLENCIA INTRAFAMILIAR", "SITIO": "SIN INFORMACION", "COMUNA": 13, "NOM_COMUNA": "COMUNA 13", "BARRIO": 1395, "NOM_BARRIO": "Los Lagos", "DIRECCION": "76001 Carrera 26I3, Los Lagos, Comuna 13, Cali, Valle del Cauca, COL,LOS LAGOS", "X": -76.486003, "Y": 3.429521, "FECHA_HECH": "2023-03-30", "HORA_HECHO": "20:06", "ESTRATO": 2 }, "geometry": { "type": "Point", "coordinates": [ -76.486003, 3.429521 ] } },
{ "type": "Feature", "properties": { "DELITO": "VIOLENCIA INTRAFAMILIAR", "SITIO": "SIN INFORMACION", "COMUNA": 13, "NOM_COMUNA": "COMUNA 13", "BARRIO": 1307, "NOM_BARRIO": "Omar Torrijos", "DIRECCION": "76001 Centro Educativo Comunit Omar Torrijos, Calle 72X 27, Omar Torrijos, Comuna 13, Cali, Valle del Cauca, COL,OMAR TORRIJOS", "X": -76.486664, "Y": 3.425298, "FECHA_HECH": "2023-03-30", "HORA_HECHO": "17:20", "ESTRATO": 2 }, "geometry": { "type": "Point", "coordinates": [ -76.486664, 3.425298 ] } },
{ "type": "Feature", "properties": { "DELITO": "VIOLENCIA INTRAFAMILIAR", "SITIO": "SIN INFORMACION", "COMUNA": 14, "NOM_COMUNA": "COMUNA 14", "BARRIO": 1406, "NOM_BARRIO": "José Manuel Marroquín I", "DIRECCION": "76001 Diagonal 26P3, José Manuel Marroquin I, Comuna 14, Cali, Valle del Cauca, COL,JOSÉ MANUEL MARROQUIN I", "X": -76.47988, "Y": 3.424905, "FECHA_HECH": "2023-03-31", "HORA_HECHO": "10:03", "ESTRATO": 2 }, "geometry": { "type": "Point", "coordinates": [ -76.47988, 3.424905 ] } },
{ "type": "Feature", "properties": { "DELITO": "VIOLENCIA INTRAFAMILIAR", "SITIO": "DOMICILIO", "COMUNA": 13, "NOM_COMUNA": "COMUNA 13", "BARRIO": 1307, "NOM_BARRIO": "Omar Torrijos", "DIRECCION": "76001 CARRERA 27G 72W 43, OMAR TORRIJOS, COMUNA 13, CALI, VALLE DEL CAUCA", "X": -76.488447, "Y": 3.424028, "FECHA_HECH": "2023-04-02", "HORA_HECHO": "23:00", "ESTRATO": 2 }, "geometry": { "type": "Point", "coordinates": [ -76.488447, 3.424028 ] } },
{ "type": "Feature", "properties": { "DELITO": "VIOLENCIA INTRAFAMILIAR", "SITIO": "SIN INFORMACION", "COMUNA": 14, "NOM_COMUNA": "COMUNA 14", "BARRIO": 1402, "NOM_BARRIO": "Alirio Mora Beltrán", "DIRECCION": "76001 Calle 77 26F 3, Alirio Mora Beltrán, Comuna 14, Cali, Valle del Cauca, COL,ALIRIO MORA BELTRÁN", "X": -76.479798, "Y": 3.434494, "FECHA_HECH": "2023-04-03", "HORA_HECHO": "19:00", "ESTRATO": 2 }, "geometry": { "type": "Point", "coordinates": [ -76.479798, 3.434494 ] } },
{ "type": "Feature", "properties": { "DELITO": "VIOLENCIA INTRAFAMILIAR", "SITIO": "SIN INFORMACION", "COMUNA": 13, "NOM_COMUNA": "COMUNA 13", "BARRIO": 1301, "NOM_BARRIO": "Ulpiano Lloreda", "DIRECCION": "76001 Carrera 24C 72 43, Ulpiano Lloreda, Comuna 13, Cali, Valle del Cauca, COL,ULPIANO LLOREDA", "X": -76.490123, "Y": 3.440302, "FECHA_HECH": "2023-04-03", "HORA_HECHO": "19:00", "ESTRATO": 2 }, "geometry": { "type": "Point", "coordinates": [ -76.490123, 3.440302 ] } },
{ "type": "Feature", "properties": { "DELITO": "VIOLENCIA INTRAFAMILIAR", "SITIO": "SIN INFORMACION", "COMUNA": 13, "NOM_COMUNA": "COMUNA 13", "BARRIO": 1395, "NOM_BARRIO": "Los Lagos", "DIRECCION": "76001 Quesera Santa Mónica, Calle 72U 26I2, Los Lagos, Comuna 13, Cali, Valle del Cauca, COL,LOS LAGOS", "X": -76.486448, "Y": 3.429505, "FECHA_HECH": "2023-04-04", "HORA_HECHO": "14:00", "ESTRATO": 2 }, "geometry": { "type": "Point", "coordinates": [ -76.486448, 3.429505 ] } },
{ "type": "Feature", "properties": { "DELITO": "VIOLENCIA INTRAFAMILIAR", "SITIO": "VIA PUBLICA", "COMUNA": 13, "NOM_COMUNA": "COMUNA 13", "BARRIO": 1310, "NOM_BARRIO": "Villa del Lago", "DIRECCION": "76001 CARRERA 25D D70, VILLA DEL LAGO, COMUNA 13, CALI, VALLE DEL CAUCA", "X": -76.490445, "Y": 3.438395, "FECHA_HECH": "2023-04-04", "HORA_HECHO": "21:45", "ESTRATO": 3 }, "geometry": { "type": "Point", "coordinates": [ -76.490445, 3.438395 ] } },
{ "type": "Feature", "properties": { "DELITO": "VIOLENCIA INTRAFAMILIAR", "SITIO": "SIN INFORMACION", "COMUNA": 14, "NOM_COMUNA": "COMUNA 14", "BARRIO": 1401, "NOM_BARRIO": "Alfonso Bonilla Aragón", "DIRECCION": "76001 Carrera 28 100 11, Alfonso Bonilla Aragón, Comuna 14, Cali, Valle del Cauca, COL,ALFONSO BONILLA ARAGÓN", "X": -76.480206, "Y": 3.415646, "FECHA_HECH": "2023-04-04", "HORA_HECHO": "05:00", "ESTRATO": 1 }, "geometry": { "type": "Point", "coordinates": [ -76.480206, 3.415646 ] } },
{ "type": "Feature", "properties": { "DELITO": "VIOLENCIA INTRAFAMILIAR", "SITIO": "DOMICILIO", "COMUNA": 13, "NOM_COMUNA": "COMUNA 13", "BARRIO": 1306, "NOM_BARRIO": "Ricardo Balcázar", "DIRECCION": "76001 CALLE 72H2 26I 26J, RICARDO BALCAZAR, COMUNA 13, CALI, VALLE DEL CAUCA", "X": -76.492655, "Y": 3.434173, "FECHA_HECH": "2023-04-07", "HORA_HECHO": "13:30", "ESTRATO": 2 }, "geometry": { "type": "Point", "coordinates": [ -76.492655, 3.434173 ] } },
{ "type": "Feature", "properties": { "DELITO": "VIOLENCIA INTRAFAMILIAR", "SITIO": "DOMICILIO", "COMUNA": 13, "NOM_COMUNA": "COMUNA 13", "BARRIO": 1305, "NOM_BARRIO": "Los Comuneros II", "DIRECCION": "76001 CARRERA 28D 72F 17, LOS COMUNEROS II, COMUNA 13, CALI, VALLE DEL CAUCA", "X": -76.496404, "Y": 3.42675, "FECHA_HECH": "2023-04-08", "HORA_HECHO": "07:00", "ESTRATO": 2 }, "geometry": { "type": "Point", "coordinates": [ -76.496404, 3.42675 ] } },
{ "type": "Feature", "properties": { "DELITO": "VIOLENCIA INTRAFAMILIAR", "SITIO": "SIN INFORMACION", "COMUNA": 14, "NOM_COMUNA": "COMUNA 14", "BARRIO": 1405, "NOM_BARRIO": "José Manuel Marroquín II", "DIRECCION": "76001 Diagonal 26I1 80 11, José Manuel Marroquin II, Comuna 14, Cali, Valle del Cauca, COL,JOSÉ MANUEL MARROQUIN II", "X": -76.48182, "Y": 3.42894, "FECHA_HECH": "2023-04-09", "HORA_HECHO": "05:00", "ESTRATO": 2 }, "geometry": { "type": "Point", "coordinates": [ -76.48182, 3.42894 ] } },
{ "type": "Feature", "properties": { "DELITO": "VIOLENCIA INTRAFAMILIAR", "SITIO": "SIN INFORMACION", "COMUNA": 13, "NOM_COMUNA": "COMUNA 13", "BARRIO": 1313, "NOM_BARRIO": "Charco Azul", "DIRECCION": "76001 BARRIO/LOCALIDAD/COMUNA:CHARCO AZUL/COMUNA 13,CALI/VALLE DEL CAUCA,CHARCO AZUL", "X": -76.485744, "Y": 3.4416, "FECHA_HECH": "2023-04-09", "HORA_HECHO": "10:11", "ESTRATO": 1 }, "geometry": { "type": "Point", "coordinates": [ -76.485744, 3.4416 ] } },
{ "type": "Feature", "properties": { "DELITO": "VIOLENCIA INTRAFAMILIAR", "SITIO": "SIN INFORMACION", "COMUNA": 14, "NOM_COMUNA": "COMUNA 14", "BARRIO": 1401, "NOM_BARRIO": "Alfonso Bonilla Aragón", "DIRECCION": "76001 Calle 73 con Carrera 26R, Alfonso Bonilla Aragón, Comuna 14, Cali, Valle del Cauca, COL,ALFONSO BONILLA ARAGÓN", "X": -76.48459, "Y": 3.42584, "FECHA_HECH": "2023-04-10", "HORA_HECHO": "16:15", "ESTRATO": 1 }, "geometry": { "type": "Point", "coordinates": [ -76.48459, 3.42584 ] } },
{ "type": "Feature", "properties": { "DELITO": "VIOLENCIA INTRAFAMILIAR", "SITIO": "SIN INFORMACION", "COMUNA": 13, "NOM_COMUNA": "COMUNA 13", "BARRIO": 1398, "NOM_BARRIO": "El Pondaje", "DIRECCION": "76001 Calle 70, El Pondaje, Comuna 13, Cali, Valle del Cauca, COL,EL PONDAJE", "X": -76.497137, "Y": 3.430879, "FECHA_HECH": "2023-04-11", "HORA_HECHO": "06:00", "ESTRATO": 2 }, "geometry": { "type": "Point", "coordinates": [ -76.497137, 3.430879 ] } },
{ "type": "Feature", "properties": { "DELITO": "VIOLENCIA INTRAFAMILIAR", "SITIO": "SIN INFORMACION", "COMUNA": 13, "NOM_COMUNA": "COMUNA 13", "BARRIO": 1395, "NOM_BARRIO": "Los Lagos", "DIRECCION": "76001 Carrera 26N 72W 1-149, Los Lagos, Comuna 13, Cali, Valle del Cauca, COL,LOS LAGOS", "X": -76.48564, "Y": 3.427175, "FECHA_HECH": "2023-04-13", "HORA_HECHO": "08:27", "ESTRATO": 2 }, "geometry": { "type": "Point", "coordinates": [ -76.48564, 3.427175 ] } },
{ "type": "Feature", "properties": { "DELITO": "VIOLENCIA INTRAFAMILIAR", "SITIO": "SIN INFORMACION", "COMUNA": 13, "NOM_COMUNA": "COMUNA 13", "BARRIO": 1395, "NOM_BARRIO": "Los Lagos", "DIRECCION": "76001 Carrera 26H2 72U 44, Los Lagos, Comuna 13, Cali, Valle del Cauca, COL,LOS LAGOS", "X": -76.485227, "Y": 3.430869, "FECHA_HECH": "2023-04-13", "HORA_HECHO": "20:00", "ESTRATO": 2 }, "geometry": { "type": "Point", "coordinates": [ -76.485227, 3.430869 ] } },
{ "type": "Feature", "properties": { "DELITO": "VIOLENCIA INTRAFAMILIAR", "SITIO": "SIN INFORMACION", "COMUNA": 13, "NOM_COMUNA": "COMUNA 13", "BARRIO": 1305, "NOM_BARRIO": "Los Comuneros II", "DIRECCION": "76001 Calle 72M 28 66, Los Comuneros II, Comuna 13, Cali, Valle del Cauca, COL,LOS COMUNEROS II", "X": -76.49226, "Y": 3.42598, "FECHA_HECH": "2023-04-13", "HORA_HECHO": "06:02", "ESTRATO": 2 }, "geometry": { "type": "Point", "coordinates": [ -76.49226, 3.42598 ] } },
{ "type": "Feature", "properties": { "DELITO": "VIOLENCIA INTRAFAMILIAR", "SITIO": "SIN INFORMACION", "COMUNA": 14, "NOM_COMUNA": "COMUNA 14", "BARRIO": 1496, "NOM_BARRIO": "Los Naranjos", "DIRECCION": "76001 Carrera 26G2, Los Naranjos I, Comuna 14, Cali, Valle del Cauca, COL,LOS NARANJOS I", "X": -76.481182, "Y": 3.433981, "FECHA_HECH": "2023-04-13", "HORA_HECHO": "06:02", "ESTRATO": 1 }, "geometry": { "type": "Point", "coordinates": [ -76.481182, 3.433981 ] } },
{ "type": "Feature", "properties": { "DELITO": "VIOLENCIA INTRAFAMILIAR", "SITIO": "DOMICILIO", "COMUNA": 13, "NOM_COMUNA": "COMUNA 13", "BARRIO": 1306, "NOM_BARRIO": "Ricardo Balcázar", "DIRECCION": "76001 TRANSVERSAL 26J DIAGONAL 70, RICARDO BALCAZAR, COMUNA 13, CALI, VALLE DEL CAUCA", "X": -76.494075, "Y": 3.43382, "FECHA_HECH": "2023-04-14", "HORA_HECHO": "10:30", "ESTRATO": 2 }, "geometry": { "type": "Point", "coordinates": [ -76.494075, 3.43382 ] } },
{ "type": "Feature", "properties": { "DELITO": "VIOLENCIA INTRAFAMILIAR", "SITIO": "SIN INFORMACION", "COMUNA": 13, "NOM_COMUNA": "COMUNA 13", "BARRIO": 1301, "NOM_BARRIO": "Ulpiano Lloreda", "DIRECCION": "76001 Calle 72B 23 34, Ulpiano Lloreda, Comuna 13, Cali, Valle del Cauca, COL,ULPIANO LLOREDA", "X": -76.488273, "Y": 3.442674, "FECHA_HECH": "2023-04-16", "HORA_HECHO": "20:00", "ESTRATO": 2 }, "geometry": { "type": "Point", "coordinates": [ -76.488273, 3.442674 ] } },
{ "type": "Feature", "properties": { "DELITO": "VIOLENCIA INTRAFAMILIAR", "SITIO": "DOMICILIO", "COMUNA": 14, "NOM_COMUNA": "COMUNA 14", "BARRIO": 1401, "NOM_BARRIO": "Alfonso Bonilla Aragón", "DIRECCION": "76001 CARRERA 28 100 18, ALFONSO BONILLA ARAGÓN, COMUNA 14, CALI, VALLE DEL CAUCA", "X": -76.480254, "Y": 3.415538, "FECHA_HECH": "2023-04-16", "HORA_HECHO": "12:00", "ESTRATO": 1 }, "geometry": { "type": "Point", "coordinates": [ -76.480254, 3.415538 ] } },
{ "type": "Feature", "properties": { "DELITO": "VIOLENCIA INTRAFAMILIAR", "SITIO": "SIN INFORMACION", "COMUNA": 13, "NOM_COMUNA": "COMUNA 13", "BARRIO": 1305, "NOM_BARRIO": "Los Comuneros II", "DIRECCION": "76001 Calle 72M 28A 94, Los Comuneros II, Comuna 13, Cali, Valle del Cauca, COL,LOS COMUNEROS II", "X": -76.492736, "Y": 3.42512, "FECHA_HECH": "2023-04-16", "HORA_HECHO": "22:32", "ESTRATO": 2 }, "geometry": { "type": "Point", "coordinates": [ -76.492736, 3.42512 ] } },
{ "type": "Feature", "properties": { "DELITO": "VIOLENCIA INTRAFAMILIAR", "SITIO": "SIN INFORMACION", "COMUNA": 13, "NOM_COMUNA": "COMUNA 13", "BARRIO": 1301, "NOM_BARRIO": "Ulpiano Lloreda", "DIRECCION": "76001 Carrera 23 71 7, Ulpiano Lloreda, Comuna 13, Cali, Valle del Cauca, COL,ULPIANO LLOREDA", "X": -76.489762, "Y": 3.443757, "FECHA_HECH": "2023-04-17", "HORA_HECHO": "13:30", "ESTRATO": 2 }, "geometry": { "type": "Point", "coordinates": [ -76.489762, 3.443757 ] } },
{ "type": "Feature", "properties": { "DELITO": "VIOLENCIA INTRAFAMILIAR", "SITIO": "SIN INFORMACION", "COMUNA": 14, "NOM_COMUNA": "COMUNA 14", "BARRIO": 1401, "NOM_BARRIO": "Alfonso Bonilla Aragón", "DIRECCION": "76001 Carrera 27G 83 32, Alfonso Bonilla Aragón, Comuna 14, Cali, Valle del Cauca, COL,ALFONSO BONILLA ARAGÓN", "X": -76.483982, "Y": 3.419582, "FECHA_HECH": "2023-04-18", "HORA_HECHO": "06:00", "ESTRATO": 1 }, "geometry": { "type": "Point", "coordinates": [ -76.483982, 3.419582 ] } },
{ "type": "Feature", "properties": { "DELITO": "VIOLENCIA INTRAFAMILIAR", "SITIO": "SIN INFORMACION", "COMUNA": 13, "NOM_COMUNA": "COMUNA 13", "BARRIO": 1301, "NOM_BARRIO": "Ulpiano Lloreda", "DIRECCION": "76001 Carrera 24 71 2-148, Ulpiano Lloreda, Comuna 13, Cali, Valle del Cauca, COL,ULPIANO LLOREDA", "X": -76.490163, "Y": 3.44166, "FECHA_HECH": "2023-04-19", "HORA_HECHO": "20:00", "ESTRATO": 2 }, "geometry": { "type": "Point", "coordinates": [ -76.490163, 3.44166 ] } },
{ "type": "Feature", "properties": { "DELITO": "VIOLENCIA INTRAFAMILIAR", "SITIO": "SIN INFORMACION", "COMUNA": 13, "NOM_COMUNA": "COMUNA 13", "BARRIO": 1395, "NOM_BARRIO": "Los Lagos", "DIRECCION": "76001 Carrera 26I 72S 63, Los Lagos, Comuna 13, Cali, Valle del Cauca, COL,LOS LAGOS", "X": -76.486683, "Y": 3.430854, "FECHA_HECH": "2023-04-21", "HORA_HECHO": "07:00", "ESTRATO": 2 }, "geometry": { "type": "Point", "coordinates": [ -76.486683, 3.430854 ] } },
{ "type": "Feature", "properties": { "DELITO": "VIOLENCIA INTRAFAMILIAR", "SITIO": "SIN INFORMACION", "COMUNA": 13, "NOM_COMUNA": "COMUNA 13", "BARRIO": 1314, "NOM_BARRIO": "Villablanca", "DIRECCION": "76001 Diagonal 72C, Villa Blanca, Comuna 13, Cali, Valle del Cauca, COL,EL PONDAJE", "X": -76.494546, "Y": 3.431313, "FECHA_HECH": "2023-04-23", "HORA_HECHO": "16:30", "ESTRATO": 2 }, "geometry": { "type": "Point", "coordinates": [ -76.494546, 3.431313 ] } },
{ "type": "Feature", "properties": { "DELITO": "VIOLENCIA INTRAFAMILIAR", "SITIO": "SIN INFORMACION", "COMUNA": 14, "NOM_COMUNA": "COMUNA 14", "BARRIO": 1406, "NOM_BARRIO": "José Manuel Marroquín I", "DIRECCION": "76001 Diagonal 26P6 87 17, José Manuel Marroquin I, Comuna 14, Cali, Valle del Cauca, COL,JOSÉ MANUEL MARROQUIN I", "X": -76.480108, "Y": 3.423869, "FECHA_HECH": "2023-04-23", "HORA_HECHO": "11:00", "ESTRATO": 2 }, "geometry": { "type": "Point", "coordinates": [ -76.480108, 3.423869 ] } },
{ "type": "Feature", "properties": { "DELITO": "VIOLENCIA INTRAFAMILIAR", "SITIO": "SIN INFORMACION", "COMUNA": 14, "NOM_COMUNA": "COMUNA 14", "BARRIO": 1401, "NOM_BARRIO": "Alfonso Bonilla Aragón", "DIRECCION": "76001 Carrera 28D 95 45, Alfonso Bonilla Aragón, Comuna 14, Cali, Valle del Cauca, COL,ALFONSO BONILLA ARAGÓN", "X": -76.48231, "Y": 3.415143, "FECHA_HECH": "2023-04-26", "HORA_HECHO": "08:00", "ESTRATO": 1 }, "geometry": { "type": "Point", "coordinates": [ -76.48231, 3.415143 ] } },
{ "type": "Feature", "properties": { "DELITO": "VIOLENCIA INTRAFAMILIAR", "SITIO": "DOMICILIO", "COMUNA": 13, "NOM_COMUNA": "COMUNA 13", "BARRIO": 1307, "NOM_BARRIO": "Omar Torrijos", "DIRECCION": "76001 CARRERA 27F 72U 2, OMAR TORRIJOS, COMUNA 13, CALI, VALLE DEL CAUCA", "X": -76.488774, "Y": 3.424599, "FECHA_HECH": "2023-04-26", "HORA_HECHO": "21:30", "ESTRATO": 2 }, "geometry": { "type": "Point", "coordinates": [ -76.488774, 3.424599 ] } },
{ "type": "Feature", "properties": { "DELITO": "VIOLENCIA INTRAFAMILIAR", "SITIO": "DOMICILIO", "COMUNA": 14, "NOM_COMUNA": "COMUNA 14", "BARRIO": 1498, "NOM_BARRIO": "Promociones Populares B", "DIRECCION": "76001 TRANSVERSAL 103 CALLE 85 23, PROMOCIONES POPULARES, COMUNA 14, CALI, VALLE DEL CAUCA", "X": -76.477293, "Y": 3.428652, "FECHA_HECH": "2023-04-27", "HORA_HECHO": "07:00", "ESTRATO": 1 }, "geometry": { "type": "Point", "coordinates": [ -76.477293, 3.428652 ] } },
{ "type": "Feature", "properties": { "DELITO": "VIOLENCIA INTRAFAMILIAR", "SITIO": "DOMICILIO", "COMUNA": 13, "NOM_COMUNA": "COMUNA 13", "BARRIO": 1394, "NOM_BARRIO": "Marroquín III", "DIRECCION": "76001 DIAGONAL 26G 10 74, MARROQUIN III, COMUNA 13, CALI, VALLE DEL CAUCA", "X": -76.48435, "Y": 3.432047, "FECHA_HECH": "2023-04-28", "HORA_HECHO": "12:30", "ESTRATO": 2 }, "geometry": { "type": "Point", "coordinates": [ -76.48435, 3.432047 ] } },
{ "type": "Feature", "properties": { "DELITO": "VIOLENCIA INTRAFAMILIAR", "SITIO": "VIA PUBLICA", "COMUNA": 13, "NOM_COMUNA": "COMUNA 13", "BARRIO": 1305, "NOM_BARRIO": "Los Comuneros II", "DIRECCION": "76001 CALLE 72M CON CARRERA 28, LOS COMUNEROS II, COMUNA 13, CALI, VALLE DEL CAUCA", "X": -76.49184, "Y": 3.42645, "FECHA_HECH": "2023-04-28", "HORA_HECHO": "15:00", "ESTRATO": 2 }, "geometry": { "type": "Point", "coordinates": [ -76.49184, 3.42645 ] } },
{ "type": "Feature", "properties": { "DELITO": "VIOLENCIA INTRAFAMILIAR", "SITIO": "SIN INFORMACION", "COMUNA": 14, "NOM_COMUNA": "COMUNA 14", "BARRIO": 1406, "NOM_BARRIO": "José Manuel Marroquín I", "DIRECCION": "76001 Diagonal 26P12 Transversal 96 39, José Manuel Marroquin I, Comuna 14, Cali, Valle del Cauca, COL,JOSÉ MANUEL MARROQUIN I", "X": -76.478259, "Y": 3.421703, "FECHA_HECH": "2023-04-29", "HORA_HECHO": "15:02", "ESTRATO": 2 }, "geometry": { "type": "Point", "coordinates": [ -76.478259, 3.421703 ] } },
{ "type": "Feature", "properties": { "DELITO": "VIOLENCIA INTRAFAMILIAR", "SITIO": "DOMICILIO", "COMUNA": 14, "NOM_COMUNA": "COMUNA 14", "BARRIO": 1401, "NOM_BARRIO": "Alfonso Bonilla Aragón", "DIRECCION": "76001 CARRERA 27F 100 18, ALFONSO BONILLA ARAGÓN, COMUNA 14, CALI, VALLE DEL CAUCA", "X": -76.479705, "Y": 3.416143, "FECHA_HECH": "2023-04-30", "HORA_HECHO": "12:00", "ESTRATO": 1 }, "geometry": { "type": "Point", "coordinates": [ -76.479705, 3.416143 ] } },
{ "type": "Feature", "properties": { "DELITO": "VIOLENCIA INTRAFAMILIAR", "SITIO": "DOMICILIO", "COMUNA": 13, "NOM_COMUNA": "COMUNA 13", "BARRIO": 1313, "NOM_BARRIO": "Charco Azul", "DIRECCION": "76001 CARRERA 22 72U1 6, CHARCO AZUL, COMUNA 13, CALI, VALLE DEL CAUCA", "X": -76.4854, "Y": 3.443067, "FECHA_HECH": "2023-04-30", "HORA_HECHO": "22:00", "ESTRATO": 1 }, "geometry": { "type": "Point", "coordinates": [ -76.4854, 3.443067 ] } },
{ "type": "Feature", "properties": { "DELITO": "VIOLENCIA INTRAFAMILIAR", "SITIO": "DOMICILIO", "COMUNA": 13, "NOM_COMUNA": "COMUNA 13", "BARRIO": 1393, "NOM_BARRIO": "Lleras Restrepo II", "DIRECCION": "76001 CALLE 72B 23B 43, LLERAS RESTREPO II, COMUNA 13, CALI, VALLE DEL CAUCA", "X": -76.487954, "Y": 3.441242, "FECHA_HECH": "2023-04-30", "HORA_HECHO": "19:00", "ESTRATO": 2 }, "geometry": { "type": "Point", "coordinates": [ -76.487954, 3.441242 ] } },
{ "type": "Feature", "properties": { "DELITO": "VIOLENCIA INTRAFAMILIAR", "SITIO": "SIN INFORMACION", "COMUNA": 13, "NOM_COMUNA": "COMUNA 13", "BARRIO": 1314, "NOM_BARRIO": "Villablanca", "DIRECCION": "76001 Carrera 28 BIS 72, Villa Blanca, Comuna 13, Cali, Valle del Cauca, COL,VILLA BLANCA", "X": -76.495339, "Y": 3.428887, "FECHA_HECH": "2023-05-01", "HORA_HECHO": "17:00", "ESTRATO": 2 }, "geometry": { "type": "Point", "coordinates": [ -76.495339, 3.428887 ] } },
{ "type": "Feature", "properties": { "DELITO": "VIOLENCIA INTRAFAMILIAR", "SITIO": "SIN INFORMACION", "COMUNA": 13, "NOM_COMUNA": "COMUNA 13", "BARRIO": 1395, "NOM_BARRIO": "Los Lagos", "DIRECCION": "76001 Calle 72U 26K 1-99, Los Lagos, Comuna 13, Cali, Valle del Cauca, COL,LOS LAGOS", "X": -76.486741, "Y": 3.428877, "FECHA_HECH": "2023-05-01", "HORA_HECHO": "16:00", "ESTRATO": 2 }, "geometry": { "type": "Point", "coordinates": [ -76.486741, 3.428877 ] } },
{ "type": "Feature", "properties": { "DELITO": "VIOLENCIA INTRAFAMILIAR", "SITIO": "SIN INFORMACION", "COMUNA": 13, "NOM_COMUNA": "COMUNA 13", "BARRIO": 1395, "NOM_BARRIO": "Los Lagos", "DIRECCION": "76001 Calle 73, Los Lagos, Comuna 13, Cali, Valle del Cauca, COL,LOS LAGOS", "X": -76.484035, "Y": 3.428555, "FECHA_HECH": "2023-05-02", "HORA_HECHO": "01:00", "ESTRATO": 2 }, "geometry": { "type": "Point", "coordinates": [ -76.484035, 3.428555 ] } },
{ "type": "Feature", "properties": { "DELITO": "VIOLENCIA INTRAFAMILIAR", "SITIO": "DOMICILIO", "COMUNA": 13, "NOM_COMUNA": "COMUNA 13", "BARRIO": 1304, "NOM_BARRIO": "El Poblado II", "DIRECCION": "76001 FERRETERÍA EL POBLADO", "X": -76.49153, "Y": 3.42211, "FECHA_HECH": "2023-05-02", "HORA_HECHO": "12:00", "ESTRATO": 2 }, "geometry": { "type": "Point", "coordinates": [ -76.49153, 3.42211 ] } },
{ "type": "Feature", "properties": { "DELITO": "VIOLENCIA INTRAFAMILIAR", "SITIO": "VIA PUBLICA", "COMUNA": 14, "NOM_COMUNA": "COMUNA 14", "BARRIO": 1406, "NOM_BARRIO": "José Manuel Marroquín I", "DIRECCION": "76001 TRANSVERSAL 103 CON DIAGONAL 26P10, JOSÉ MANUEL MARROQUIN I, COMUNA 14, CALI, VALLE DEL CAUCA", "X": -76.47801, "Y": 3.42238, "FECHA_HECH": "2023-05-02", "HORA_HECHO": "11:00", "ESTRATO": 2 }, "geometry": { "type": "Point", "coordinates": [ -76.47801, 3.42238 ] } },
{ "type": "Feature", "properties": { "DELITO": "VIOLENCIA INTRAFAMILIAR", "SITIO": "SIN INFORMACION", "COMUNA": 13, "NOM_COMUNA": "COMUNA 13", "BARRIO": 1394, "NOM_BARRIO": "Marroquín III", "DIRECCION": "76001 BARRIO/LOCALIDAD/COMUNA:MARROQUIN III/COMUNA 13,CALI/VALLE DEL CAUCA,MARROQUIN III", "X": -76.485381, "Y": 3.432899, "FECHA_HECH": "2023-05-03", "HORA_HECHO": "19:30", "ESTRATO": 2 }, "geometry": { "type": "Point", "coordinates": [ -76.485381, 3.432899 ] } },
{ "type": "Feature", "properties": { "DELITO": "VIOLENCIA INTRAFAMILIAR", "SITIO": "SIN INFORMACION", "COMUNA": 13, "NOM_COMUNA": "COMUNA 13", "BARRIO": 1395, "NOM_BARRIO": "Los Lagos", "DIRECCION": "76001 Calle 72U 26H 72P, Los Lagos, Comuna 13, Cali, Valle del Cauca, COL,LOS LAGOS", "X": -76.485412, "Y": 3.431555, "FECHA_HECH": "2023-05-04", "HORA_HECHO": "14:30", "ESTRATO": 2 }, "geometry": { "type": "Point", "coordinates": [ -76.485412, 3.431555 ] } },
{ "type": "Feature", "properties": { "DELITO": "VIOLENCIA INTRAFAMILIAR", "SITIO": "SIN INFORMACION", "COMUNA": 14, "NOM_COMUNA": "COMUNA 14", "BARRIO": 1401, "NOM_BARRIO": "Alfonso Bonilla Aragón", "DIRECCION": "76001 Carrera 27E 83 2-198, Alfonso Bonilla Aragón, Comuna 14, Cali, Valle del Cauca, COL,ALFONSO BONILLA ARAGÓN", "X": -76.483343, "Y": 3.419821, "FECHA_HECH": "2023-05-05", "HORA_HECHO": "14:37", "ESTRATO": 1 }, "geometry": { "type": "Point", "coordinates": [ -76.483343, 3.419821 ] } },
{ "type": "Feature", "properties": { "DELITO": "VIOLENCIA INTRAFAMILIAR", "SITIO": "DOMICILIO", "COMUNA": 14, "NOM_COMUNA": "COMUNA 14", "BARRIO": 1401, "NOM_BARRIO": "Alfonso Bonilla Aragón", "DIRECCION": "76001 CARRERA 26P, JOSÉ MANUEL MARROQUIN I, COMUNA 14, CALI, VALLE DEL CAUCA", "X": -76.484045, "Y": 3.42578, "FECHA_HECH": "2023-05-06", "HORA_HECHO": "20:00", "ESTRATO": 1 }, "geometry": { "type": "Point", "coordinates": [ -76.484045, 3.42578 ] } },
{ "type": "Feature", "properties": { "DELITO": "VIOLENCIA INTRAFAMILIAR", "SITIO": "SIN INFORMACION", "COMUNA": 14, "NOM_COMUNA": "COMUNA 14", "BARRIO": 1401, "NOM_BARRIO": "Alfonso Bonilla Aragón", "DIRECCION": "76001 Carrera 28 100 10, Alfonso Bonilla Aragón, Comuna 14, Cali, Valle del Cauca, COL,ALFONSO BONILLA ARAGÓN", "X": -76.480281, "Y": 3.415559, "FECHA_HECH": "2023-05-06", "HORA_HECHO": "22:32", "ESTRATO": 1 }, "geometry": { "type": "Point", "coordinates": [ -76.480281, 3.415559 ] } },
{ "type": "Feature", "properties": { "DELITO": "VIOLENCIA INTRAFAMILIAR", "SITIO": "DOMICILIO", "COMUNA": 13, "NOM_COMUNA": "COMUNA 13", "BARRIO": 1305, "NOM_BARRIO": "Los Comuneros II", "DIRECCION": "76001 MUEBLERÍA COMUNEROS", "X": -76.49411, "Y": 3.42464, "FECHA_HECH": "2023-05-07", "HORA_HECHO": "09:00", "ESTRATO": 2 }, "geometry": { "type": "Point", "coordinates": [ -76.49411, 3.42464 ] } },
{ "type": "Feature", "properties": { "DELITO": "VIOLENCIA INTRAFAMILIAR", "SITIO": "SIN INFORMACION", "COMUNA": 14, "NOM_COMUNA": "COMUNA 14", "BARRIO": 1406, "NOM_BARRIO": "José Manuel Marroquín I", "DIRECCION": "76001 José Manuel Marroquin I, Comuna 14, Cali, Valle del Cauca, COL,JOSÉ MANUEL MARROQUIN I", "X": -76.47831, "Y": 3.42238, "FECHA_HECH": "2023-05-07", "HORA_HECHO": "12:06", "ESTRATO": 2 }, "geometry": { "type": "Point", "coordinates": [ -76.47831, 3.42238 ] } },
{ "type": "Feature", "properties": { "DELITO": "VIOLENCIA INTRAFAMILIAR", "SITIO": "DOMICILIO", "COMUNA": 13, "NOM_COMUNA": "COMUNA 13", "BARRIO": 1313, "NOM_BARRIO": "Charco Azul", "DIRECCION": "76001 CARRERA 22 72U1 6, CHARCO AZUL, COMUNA 13, CALI, VALLE DEL CAUCA", "X": -76.4854, "Y": 3.443067, "FECHA_HECH": "2023-05-07", "HORA_HECHO": "20:00", "ESTRATO": 1 }, "geometry": { "type": "Point", "coordinates": [ -76.4854, 3.443067 ] } },
{ "type": "Feature", "properties": { "DELITO": "VIOLENCIA INTRAFAMILIAR", "SITIO": "SIN INFORMACION", "COMUNA": 13, "NOM_COMUNA": "COMUNA 13", "BARRIO": 1313, "NOM_BARRIO": "Charco Azul", "DIRECCION": "76001 Carrera 25P 72U 58, Charco Azul, Comuna 13, Cali, Valle del Cauca, COL,CHARCO AZUL", "X": -76.48473, "Y": 3.441888, "FECHA_HECH": "2023-05-07", "HORA_HECHO": "03:00", "ESTRATO": 1 }, "geometry": { "type": "Point", "coordinates": [ -76.48473, 3.441888 ] } },
{ "type": "Feature", "properties": { "DELITO": "VIOLENCIA INTRAFAMILIAR", "SITIO": "SIN INFORMACION", "COMUNA": 13, "NOM_COMUNA": "COMUNA 13", "BARRIO": 1307, "NOM_BARRIO": "Omar Torrijos", "DIRECCION": "76001 Calle 72U 27 94, Omar Torrijos, Comuna 13, Cali, Valle del Cauca, COL,OMAR TORRIJOS", "X": -76.487671, "Y": 3.426697, "FECHA_HECH": "2023-05-07", "HORA_HECHO": "19:00", "ESTRATO": 2 }, "geometry": { "type": "Point", "coordinates": [ -76.487671, 3.426697 ] } },
{ "type": "Feature", "properties": { "DELITO": "VIOLENCIA INTRAFAMILIAR", "SITIO": "DOMICILIO", "COMUNA": 14, "NOM_COMUNA": "COMUNA 14", "BARRIO": 1401, "NOM_BARRIO": "Alfonso Bonilla Aragón", "DIRECCION": "76001 CARRERA 28C 86 1, ALFONSO BONILLA ARAGÓN, COMUNA 14, CALI, VALLE DEL CAUCA", "X": -76.484039, "Y": 3.418325, "FECHA_HECH": "2023-05-08", "HORA_HECHO": "03:00", "ESTRATO": 1 }, "geometry": { "type": "Point", "coordinates": [ -76.484039, 3.418325 ] } },
{ "type": "Feature", "properties": { "DELITO": "VIOLENCIA INTRAFAMILIAR", "SITIO": "SIN INFORMACION", "COMUNA": 14, "NOM_COMUNA": "COMUNA 14", "BARRIO": 1405, "NOM_BARRIO": "José Manuel Marroquín II", "DIRECCION": "76001 Diagonal 26H4 73 45, José Manuel Marroquin II, Comuna 14, Cali, Valle del Cauca, COL,JOSÉ MANUEL MARROQUIN II", "X": -76.483199, "Y": 3.429637, "FECHA_HECH": "2023-05-08", "HORA_HECHO": "00:00", "ESTRATO": 2 }, "geometry": { "type": "Point", "coordinates": [ -76.483199, 3.429637 ] } },
{ "type": "Feature", "properties": { "DELITO": "VIOLENCIA INTRAFAMILIAR", "SITIO": "SIN INFORMACION", "COMUNA": 13, "NOM_COMUNA": "COMUNA 13", "BARRIO": 1395, "NOM_BARRIO": "Los Lagos", "DIRECCION": "76001 Carrera 26J 72U 49, Los Lagos, Comuna 13, Cali, Valle del Cauca, COL,LOS LAGOS", "X": -76.48612, "Y": 3.429082, "FECHA_HECH": "2023-05-09", "HORA_HECHO": "08:00", "ESTRATO": 2 }, "geometry": { "type": "Point", "coordinates": [ -76.48612, 3.429082 ] } },
{ "type": "Feature", "properties": { "DELITO": "VIOLENCIA INTRAFAMILIAR", "SITIO": "DOMICILIO", "COMUNA": 15, "NOM_COMUNA": "COMUNA 14", "BARRIO": 1598, "NOM_BARRIO": "Mojica", "DIRECCION": "76001 CARRERA 28 5 92 23", "X": -76.48376, "Y": 3.415378, "FECHA_HECH": "2023-05-10", "HORA_HECHO": "14:00", "ESTRATO": 1 }, "geometry": { "type": "Point", "coordinates": [ -76.48376, 3.415378 ] } },
{ "type": "Feature", "properties": { "DELITO": "VIOLENCIA INTRAFAMILIAR", "SITIO": "SIN INFORMACION", "COMUNA": 13, "NOM_COMUNA": "COMUNA 13", "BARRIO": 1394, "NOM_BARRIO": "Marroquín III", "DIRECCION": "76001 Diagonal 26G10, Marroquin III, Comuna 13, Cali, Valle del Cauca, COL,MARROQUIN III", "X": -76.48619, "Y": 3.43205, "FECHA_HECH": "2023-05-11", "HORA_HECHO": "15:27", "ESTRATO": 2 }, "geometry": { "type": "Point", "coordinates": [ -76.48619, 3.43205 ] } },
{ "type": "Feature", "properties": { "DELITO": "VIOLENCIA INTRAFAMILIAR", "SITIO": "SIN INFORMACION", "COMUNA": 13, "NOM_COMUNA": "COMUNA 13", "BARRIO": 1397, "NOM_BARRIO": "Sector Laguna del Pondaje", "DIRECCION": "76001 Diagonal 72C, Ricardo Balcazar, Comuna 13, Cali, Valle del Cauca, COL,LAGUNA DEL PONDAJE", "X": -76.492581, "Y": 3.432268, "FECHA_HECH": "2023-05-11", "HORA_HECHO": "09:00", "ESTRATO": 1 }, "geometry": { "type": "Point", "coordinates": [ -76.492581, 3.432268 ] } },
{ "type": "Feature", "properties": { "DELITO": "VIOLENCIA INTRAFAMILIAR", "SITIO": "SIN INFORMACION", "COMUNA": 14, "NOM_COMUNA": "COMUNA 14", "BARRIO": 1401, "NOM_BARRIO": "Alfonso Bonilla Aragón", "DIRECCION": "76001 Calle 85 26P 63, Alfonso Bonilla Aragón, Comuna 14, Cali, Valle del Cauca, COL,ALFONSO BONILLA ARAGÓN", "X": -76.481085, "Y": 3.421964, "FECHA_HECH": "2023-05-13", "HORA_HECHO": "07:00", "ESTRATO": 1 }, "geometry": { "type": "Point", "coordinates": [ -76.481085, 3.421964 ] } },
{ "type": "Feature", "properties": { "DELITO": "VIOLENCIA INTRAFAMILIAR", "SITIO": "SIN INFORMACION", "COMUNA": 14, "NOM_COMUNA": "COMUNA 14", "BARRIO": 1401, "NOM_BARRIO": "Alfonso Bonilla Aragón", "DIRECCION": "76001 Calle 80 28, Alfonso Bonilla Aragón, Comuna 14, Cali, Valle del Cauca, COL,ALFONSO BONILLA ARAGÓN", "X": -76.485245, "Y": 3.420085, "FECHA_HECH": "2023-05-14", "HORA_HECHO": "09:50", "ESTRATO": 1 }, "geometry": { "type": "Point", "coordinates": [ -76.485245, 3.420085 ] } },
{ "type": "Feature", "properties": { "DELITO": "VIOLENCIA INTRAFAMILIAR", "SITIO": "SIN INFORMACION", "COMUNA": 14, "NOM_COMUNA": "COMUNA 14", "BARRIO": 1499, "NOM_BARRIO": "Los Naranjos II", "DIRECCION": "76001 Calle 80, Los Naranjos II, Comuna 14, Cali, Valle del Cauca, COL,LOS NARANJOS II", "X": -76.478515, "Y": 3.43127, "FECHA_HECH": "2023-05-14", "HORA_HECHO": "10:05", "ESTRATO": 1 }, "geometry": { "type": "Point", "coordinates": [ -76.478515, 3.43127 ] } },
{ "type": "Feature", "properties": { "DELITO": "VIOLENCIA INTRAFAMILIAR", "SITIO": "DOMICILIO", "COMUNA": 13, "NOM_COMUNA": "COMUNA 13", "BARRIO": 1310, "NOM_BARRIO": "Villa del Lago", "DIRECCION": "76001 VILLA DEL LAGO", "X": -76.49029, "Y": 3.4377, "FECHA_HECH": "2023-05-14", "HORA_HECHO": "23:30", "ESTRATO": 3 }, "geometry": { "type": "Point", "coordinates": [ -76.49029, 3.4377 ] } },
{ "type": "Feature", "properties": { "DELITO": "VIOLENCIA INTRAFAMILIAR", "SITIO": "SIN INFORMACION", "COMUNA": 14, "NOM_COMUNA": "COMUNA 14", "BARRIO": 1405, "NOM_BARRIO": "José Manuel Marroquín II", "DIRECCION": "76001 Transversal 73 Diagonal 26G1 1-99, José Manuel Marroquin II, Comuna 14, Cali, Valle del Cauca, COL,JOSÉ MANUEL MARROQUIN II", "X": -76.483023, "Y": 3.435219, "FECHA_HECH": "2023-05-14", "HORA_HECHO": "03:30", "ESTRATO": 2 }, "geometry": { "type": "Point", "coordinates": [ -76.483023, 3.435219 ] } },
{ "type": "Feature", "properties": { "DELITO": "VIOLENCIA INTRAFAMILIAR", "SITIO": "SIN INFORMACION", "COMUNA": 13, "NOM_COMUNA": "COMUNA 13", "BARRIO": 1394, "NOM_BARRIO": "Marroquín III", "DIRECCION": "76001 Diagonal 26G8 72T 17, Marroquin III, Comuna 13, Cali, Valle del Cauca, COL,MARROQUIN III", "X": -76.485619, "Y": 3.432841, "FECHA_HECH": "2023-05-15", "HORA_HECHO": "13:00", "ESTRATO": 2 }, "geometry": { "type": "Point", "coordinates": [ -76.485619, 3.432841 ] } },
{ "type": "Feature", "properties": { "DELITO": "VIOLENCIA INTRAFAMILIAR", "SITIO": "SIN INFORMACION", "COMUNA": 13, "NOM_COMUNA": "COMUNA 13", "BARRIO": 1314, "NOM_BARRIO": "Villablanca", "DIRECCION": "76001 Diagonal 72C, El Pondaje, Comuna 13, Cali, Valle del Cauca, COL,EL PONDAJE", "X": -76.49467, "Y": 3.431235, "FECHA_HECH": "2023-05-15", "HORA_HECHO": "00:30", "ESTRATO": 2 }, "geometry": { "type": "Point", "coordinates": [ -76.49467, 3.431235 ] } },
{ "type": "Feature", "properties": { "DELITO": "VIOLENCIA INTRAFAMILIAR", "SITIO": "SIN INFORMACION", "COMUNA": 13, "NOM_COMUNA": "COMUNA 13", "BARRIO": 1301, "NOM_BARRIO": "Ulpiano Lloreda", "DIRECCION": "76001 Carrera 23A 72B 35, Ulpiano Lloreda, Comuna 13, Cali, Valle del Cauca, COL,ULPIANO LLOREDA", "X": -76.488094, "Y": 3.442283, "FECHA_HECH": "2023-05-15", "HORA_HECHO": "22:30", "ESTRATO": 2 }, "geometry": { "type": "Point", "coordinates": [ -76.488094, 3.442283 ] } },
{ "type": "Feature", "properties": { "DELITO": "VIOLENCIA INTRAFAMILIAR", "SITIO": "SIN INFORMACION", "COMUNA": 14, "NOM_COMUNA": "COMUNA 14", "BARRIO": 1496, "NOM_BARRIO": "Los Naranjos", "DIRECCION": "76001 BARRIO/LOCALIDAD/COMUNA:LOS NARANJOS I/COMUNA 14,CALI/VALLE DEL CAUCA,LOS NARANJOS I", "X": -76.480952, "Y": 3.433701, "FECHA_HECH": "2023-05-17", "HORA_HECHO": "11:00", "ESTRATO": 1 }, "geometry": { "type": "Point", "coordinates": [ -76.480952, 3.433701 ] } },
{ "type": "Feature", "properties": { "DELITO": "VIOLENCIA INTRAFAMILIAR", "SITIO": "SIN INFORMACION", "COMUNA": 13, "NOM_COMUNA": "COMUNA 13", "BARRIO": 1398, "NOM_BARRIO": "El Pondaje", "DIRECCION": "76001 Calle 71A 27 22, El Pondaje, Comuna 13, Cali, Valle del Cauca, COL,EL PONDAJE", "X": -76.496445, "Y": 3.430542, "FECHA_HECH": "2023-05-19", "HORA_HECHO": "10:28", "ESTRATO": 2 }, "geometry": { "type": "Point", "coordinates": [ -76.496445, 3.430542 ] } },
{ "type": "Feature", "properties": { "DELITO": "VIOLENCIA INTRAFAMILIAR", "SITIO": "VIA PUBLICA", "COMUNA": 14, "NOM_COMUNA": "COMUNA 14", "BARRIO": 1405, "NOM_BARRIO": "José Manuel Marroquín II", "DIRECCION": "76001 DIAGONAL 26G9 73 45, JOSÉ MANUEL MARROQUIN II, COMUNA 14, CALI, VALLE DEL CAUCA", "X": -76.483245, "Y": 3.432532, "FECHA_HECH": "2023-05-20", "HORA_HECHO": "14:00", "ESTRATO": 2 }, "geometry": { "type": "Point", "coordinates": [ -76.483245, 3.432532 ] } },
{ "type": "Feature", "properties": { "DELITO": "VIOLENCIA INTRAFAMILIAR", "SITIO": "SIN INFORMACION", "COMUNA": 13, "NOM_COMUNA": "COMUNA 13", "BARRIO": 1395, "NOM_BARRIO": "Los Lagos", "DIRECCION": "76001 Carrera 26N 72W 2-148, Los Lagos, Comuna 13, Cali, Valle del Cauca, COL,LOS LAGOS", "X": -76.485821, "Y": 3.427176, "FECHA_HECH": "2023-05-21", "HORA_HECHO": "11:56", "ESTRATO": 2 }, "geometry": { "type": "Point", "coordinates": [ -76.485821, 3.427176 ] } },
{ "type": "Feature", "properties": { "DELITO": "VIOLENCIA INTRAFAMILIAR", "SITIO": "DOMICILIO", "COMUNA": 14, "NOM_COMUNA": "COMUNA 14", "BARRIO": 1496, "NOM_BARRIO": "Los Naranjos", "DIRECCION": "76001 CARRERA 26G3 76 75D, LOS NARANJOS I, COMUNA 14, CALI, VALLE DEL CAUCA", "X": -76.480801, "Y": 3.433494, "FECHA_HECH": "2023-05-21", "HORA_HECHO": "21:38", "ESTRATO": 1 }, "geometry": { "type": "Point", "coordinates": [ -76.480801, 3.433494 ] } },
{ "type": "Feature", "properties": { "DELITO": "VIOLENCIA INTRAFAMILIAR", "SITIO": "SIN INFORMACION", "COMUNA": 13, "NOM_COMUNA": "COMUNA 13", "BARRIO": 1395, "NOM_BARRIO": "Los Lagos", "DIRECCION": "76001 Tienda Avenida Los Lagos, Calle 72U 26I1, Los Lagos, Comuna 13, Cali, Valle del Cauca, COL,LOS LAGOS", "X": -76.486097, "Y": 3.430233, "FECHA_HECH": "2023-05-22", "HORA_HECHO": "14:00", "ESTRATO": 2 }, "geometry": { "type": "Point", "coordinates": [ -76.486097, 3.430233 ] } },
{ "type": "Feature", "properties": { "DELITO": "VIOLENCIA INTRAFAMILIAR", "SITIO": "SIN INFORMACION", "COMUNA": 13, "NOM_COMUNA": "COMUNA 13", "BARRIO": 1306, "NOM_BARRIO": "Ricardo Balcázar", "DIRECCION": "76001 Calle 72D 26H3 21, Ricardo Balcazar, Comuna 13, Cali, Valle del Cauca, COL,RICARDO BALCAZAR", "X": -76.49242, "Y": 3.435386, "FECHA_HECH": "2023-05-22", "HORA_HECHO": "19:00", "ESTRATO": 2 }, "geometry": { "type": "Point", "coordinates": [ -76.49242, 3.435386 ] } },
{ "type": "Feature", "properties": { "DELITO": "VIOLENCIA INTRAFAMILIAR", "SITIO": "SIN INFORMACION", "COMUNA": 14, "NOM_COMUNA": "COMUNA 14", "BARRIO": 1401, "NOM_BARRIO": "Alfonso Bonilla Aragón", "DIRECCION": "76001 Carrera 27A 86 7, Alfonso Bonilla Aragón, Comuna 14, Cali, Valle del Cauca, COL,ALFONSO BONILLA ARAGÓN", "X": -76.481837, "Y": 3.420612, "FECHA_HECH": "2023-05-22", "HORA_HECHO": "07:03", "ESTRATO": 1 }, "geometry": { "type": "Point", "coordinates": [ -76.481837, 3.420612 ] } },
{ "type": "Feature", "properties": { "DELITO": "VIOLENCIA INTRAFAMILIAR", "SITIO": "DOMICILIO", "COMUNA": 13, "NOM_COMUNA": "COMUNA 13", "BARRIO": 1306, "NOM_BARRIO": "Ricardo Balcázar", "DIRECCION": "76001 CALLE 72H 26I 1", "X": -76.492661, "Y": 3.434495, "FECHA_HECH": "2023-05-22", "HORA_HECHO": "01:00", "ESTRATO": 2 }, "geometry": { "type": "Point", "coordinates": [ -76.492661, 3.434495 ] } },
{ "type": "Feature", "properties": { "DELITO": "VIOLENCIA INTRAFAMILIAR", "SITIO": "SIN INFORMACION", "COMUNA": 14, "NOM_COMUNA": "COMUNA 14", "BARRIO": 1499, "NOM_BARRIO": "Los Naranjos II", "DIRECCION": "76001 Calle 80 Transversal 103 15, Los Naranjos II, Comuna 14, Cali, Valle del Cauca, COL,LOS NARANJOS II", "X": -76.47838, "Y": 3.431368, "FECHA_HECH": "2023-05-24", "HORA_HECHO": "08:00", "ESTRATO": 1 }, "geometry": { "type": "Point", "coordinates": [ -76.47838, 3.431368 ] } },
{ "type": "Feature", "properties": { "DELITO": "VIOLENCIA INTRAFAMILIAR", "SITIO": "SIN INFORMACION", "COMUNA": 13, "NOM_COMUNA": "COMUNA 13", "BARRIO": 1301, "NOM_BARRIO": "Ulpiano Lloreda", "DIRECCION": "76001 Calle 70 25 83, Ulpiano Lloreda, Comuna 13, Cali, Valle del Cauca, COL,ULPIANO LLOREDA", "X": -76.492355, "Y": 3.440144, "FECHA_HECH": "2023-05-24", "HORA_HECHO": "09:00", "ESTRATO": 2 }, "geometry": { "type": "Point", "coordinates": [ -76.492355, 3.440144 ] } },
{ "type": "Feature", "properties": { "DELITO": "VIOLENCIA INTRAFAMILIAR", "SITIO": "DOMICILIO", "COMUNA": 13, "NOM_COMUNA": "COMUNA 13", "BARRIO": 1395, "NOM_BARRIO": "Los Lagos", "DIRECCION": "76001 CARRERA 26I3 72U 85, LOS LAGOS, COMUNA 13, CALI, VALLE DEL CAUCA", "X": -76.485769, "Y": 3.42931, "FECHA_HECH": "2023-05-24", "HORA_HECHO": "20:00", "ESTRATO": 2 }, "geometry": { "type": "Point", "coordinates": [ -76.485769, 3.42931 ] } },
{ "type": "Feature", "properties": { "DELITO": "VIOLENCIA INTRAFAMILIAR", "SITIO": "SIN INFORMACION", "COMUNA": 13, "NOM_COMUNA": "COMUNA 13", "BARRIO": 1301, "NOM_BARRIO": "Ulpiano Lloreda", "DIRECCION": "76001 Carrera 23A 71 45, Ulpiano Lloreda, Comuna 13, Cali, Valle del Cauca, COL,ULPIANO LLOREDA", "X": -76.489822, "Y": 3.44317, "FECHA_HECH": "2023-05-25", "HORA_HECHO": "18:30", "ESTRATO": 2 }, "geometry": { "type": "Point", "coordinates": [ -76.489822, 3.44317 ] } },
{ "type": "Feature", "properties": { "DELITO": "VIOLENCIA INTRAFAMILIAR", "SITIO": "SIN INFORMACION", "COMUNA": 13, "NOM_COMUNA": "COMUNA 13", "BARRIO": 1310, "NOM_BARRIO": "Villa del Lago", "DIRECCION": "76001 Carrera 24B2, Villa del Lago, Comuna 13, Cali, Valle del Cauca, COL,VILLA DEL LAGO", "X": -76.488366, "Y": 3.438648, "FECHA_HECH": "2023-05-26", "HORA_HECHO": "15:00", "ESTRATO": 3 }, "geometry": { "type": "Point", "coordinates": [ -76.488366, 3.438648 ] } },
{ "type": "Feature", "properties": { "DELITO": "VIOLENCIA INTRAFAMILIAR", "SITIO": "DOMICILIO", "COMUNA": 14, "NOM_COMUNA": "COMUNA 14", "BARRIO": 1405, "NOM_BARRIO": "José Manuel Marroquín II", "DIRECCION": "76001 TRANSVERSAL 96 DIAGONAL 26H1 2", "X": -76.478729, "Y": 3.430674, "FECHA_HECH": "2023-05-26", "HORA_HECHO": "21:00", "ESTRATO": 2 }, "geometry": { "type": "Point", "coordinates": [ -76.478729, 3.430674 ] } },
{ "type": "Feature", "properties": { "DELITO": "VIOLENCIA INTRAFAMILIAR", "SITIO": "DOMICILIO", "COMUNA": 14, "NOM_COMUNA": "COMUNA 14", "BARRIO": 1405, "NOM_BARRIO": "José Manuel Marroquín II", "DIRECCION": "76001 DIAGONAL 26I1 TRANSVERSAL 93 67", "X": -76.478994, "Y": 3.428897, "FECHA_HECH": "2023-05-27", "HORA_HECHO": "22:30", "ESTRATO": 2 }, "geometry": { "type": "Point", "coordinates": [ -76.478994, 3.428897 ] } },
{ "type": "Feature", "properties": { "DELITO": "VIOLENCIA INTRAFAMILIAR", "SITIO": "SIN INFORMACION", "COMUNA": 14, "NOM_COMUNA": "COMUNA 14", "BARRIO": 1405, "NOM_BARRIO": "José Manuel Marroquín II", "DIRECCION": "76001 Diagonal 26H, José Manuel Marroquin II, Comuna 14, Cali, Valle del Cauca, COL,JOSÉ MANUEL MARROQUIN II", "X": -76.481165, "Y": 3.431059, "FECHA_HECH": "2023-05-27", "HORA_HECHO": "02:00", "ESTRATO": 2 }, "geometry": { "type": "Point", "coordinates": [ -76.481165, 3.431059 ] } },
{ "type": "Feature", "properties": { "DELITO": "VIOLENCIA INTRAFAMILIAR", "SITIO": "DOMICILIO", "COMUNA": 14, "NOM_COMUNA": "COMUNA 14", "BARRIO": 1401, "NOM_BARRIO": "Alfonso Bonilla Aragón", "DIRECCION": "76001 CARRERA 26R 73A 24, ALFONSO BONILLA ARAGÓN, COMUNA 14, CALI, VALLE DEL CAUCA", "X": -76.483777, "Y": 3.424974, "FECHA_HECH": "2023-05-28", "HORA_HECHO": "20:30", "ESTRATO": 1 }, "geometry": { "type": "Point", "coordinates": [ -76.483777, 3.424974 ] } },
{ "type": "Feature", "properties": { "DELITO": "VIOLENCIA INTRAFAMILIAR", "SITIO": "VIA PUBLICA", "COMUNA": 13, "NOM_COMUNA": "COMUNA 13", "BARRIO": 1304, "NOM_BARRIO": "El Poblado II", "DIRECCION": "76001 CARRERA 28-2 72W 70, EL POBLADO II, COMUNA 13, CALI, VALLE DEL CAUCA", "X": -76.488548, "Y": 3.422731, "FECHA_HECH": "2023-05-28", "HORA_HECHO": "04:00", "ESTRATO": 2 }, "geometry": { "type": "Point", "coordinates": [ -76.488548, 3.422731 ] } },
{ "type": "Feature", "properties": { "DELITO": "VIOLENCIA INTRAFAMILIAR", "SITIO": "SIN INFORMACION", "COMUNA": 7, "NOM_COMUNA": "COMUNA 7", "BARRIO": 707, "NOM_BARRIO": "Siete de Agosto", "DIRECCION": "76001 Carrera 18 71A 86, Siete de Agosto, Comuna 7, Cali, Valle del Cauca, COL,SIETE DE AGOSTO", "X": -76.4861, "Y": 3.44396, "FECHA_HECH": "2023-05-28", "HORA_HECHO": "20:30", "ESTRATO": 3 }, "geometry": { "type": "Point", "coordinates": [ -76.4861, 3.44396 ] } },
{ "type": "Feature", "properties": { "DELITO": "VIOLENCIA INTRAFAMILIAR", "SITIO": "SIN INFORMACION", "COMUNA": 14, "NOM_COMUNA": "COMUNA 14", "BARRIO": 1405, "NOM_BARRIO": "José Manuel Marroquín II", "DIRECCION": "76001 Carrera 26G7, José Manuel Marroquin II, Comuna 14, Cali, Valle del Cauca, COL,JOSÉ MANUEL MARROQUIN II", "X": -76.481578, "Y": 3.432347, "FECHA_HECH": "2023-05-28", "HORA_HECHO": "07:04", "ESTRATO": 2 }, "geometry": { "type": "Point", "coordinates": [ -76.481578, 3.432347 ] } },
{ "type": "Feature", "properties": { "DELITO": "VIOLENCIA INTRAFAMILIAR", "SITIO": "SIN INFORMACION", "COMUNA": 13, "NOM_COMUNA": "COMUNA 13", "BARRIO": 1398, "NOM_BARRIO": "El Pondaje", "DIRECCION": "76001 Calle 72 28, El Pondaje, Comuna 13, Cali, Valle del Cauca, COL,EL PONDAJE", "X": -76.496235, "Y": 3.429195, "FECHA_HECH": "2023-05-30", "HORA_HECHO": "13:03", "ESTRATO": 2 }, "geometry": { "type": "Point", "coordinates": [ -76.496235, 3.429195 ] } },
{ "type": "Feature", "properties": { "DELITO": "VIOLENCIA INTRAFAMILIAR", "SITIO": "SIN INFORMACION", "COMUNA": 14, "NOM_COMUNA": "COMUNA 14", "BARRIO": 1406, "NOM_BARRIO": "José Manuel Marroquín I", "DIRECCION": "76001 Diagonal 26P6 96 3, José Manuel Marroquin I, Comuna 14, Cali, Valle del Cauca, COL,JOSÉ MANUEL MARROQUIN I", "X": -76.478559, "Y": 3.423891, "FECHA_HECH": "2023-05-31", "HORA_HECHO": "06:00", "ESTRATO": 2 }, "geometry": { "type": "Point", "coordinates": [ -76.478559, 3.423891 ] } },
{ "type": "Feature", "properties": { "DELITO": "VIOLENCIA INTRAFAMILIAR", "SITIO": "SIN INFORMACION", "COMUNA": 13, "NOM_COMUNA": "COMUNA 13", "BARRIO": 1314, "NOM_BARRIO": "Villablanca", "DIRECCION": "76001 Carrera 28B 72A 28, Villa Blanca, Comuna 13, Cali, Valle del Cauca, COL,VILLA BLANCA", "X": -76.4959, "Y": 3.42849, "FECHA_HECH": "2023-05-31", "HORA_HECHO": "00:00", "ESTRATO": 2 }, "geometry": { "type": "Point", "coordinates": [ -76.4959, 3.42849 ] } },
{ "type": "Feature", "properties": { "DELITO": "VIOLENCIA INTRAFAMILIAR", "SITIO": "SIN INFORMACION", "COMUNA": 14, "NOM_COMUNA": "COMUNA 14", "BARRIO": 1401, "NOM_BARRIO": "Alfonso Bonilla Aragón", "DIRECCION": "76001 Calle 82 27D 4, Alfonso Bonilla Aragón, Comuna 14, Cali, Valle del Cauca, COL,ALFONSO BONILLA ARAGÓN", "X": -76.48382, "Y": 3.420747, "FECHA_HECH": "2023-05-31", "HORA_HECHO": "21:30", "ESTRATO": 1 }, "geometry": { "type": "Point", "coordinates": [ -76.48382, 3.420747 ] } },
{ "type": "Feature", "properties": { "DELITO": "VIOLENCIA INTRAFAMILIAR", "SITIO": "VIA PUBLICA", "COMUNA": 14, "NOM_COMUNA": "COMUNA 14", "BARRIO": 1401, "NOM_BARRIO": "Alfonso Bonilla Aragón", "DIRECCION": "76001 TRANSVERSAL 103 CARRERA 27 1", "X": -76.478784, "Y": 3.41779, "FECHA_HECH": "2023-06-01", "HORA_HECHO": "10:00", "ESTRATO": 1 }, "geometry": { "type": "Point", "coordinates": [ -76.478784, 3.41779 ] } },
{ "type": "Feature", "properties": { "DELITO": "VIOLENCIA INTRAFAMILIAR", "SITIO": "SIN INFORMACION", "COMUNA": 13, "NOM_COMUNA": "COMUNA 13", "BARRIO": 1307, "NOM_BARRIO": "Omar Torrijos", "DIRECCION": "76001 Carrera 26P 72U 69, Omar Torrijos, Comuna 13, Cali, Valle del Cauca, COL,OMAR TORRIJOS", "X": -76.486997, "Y": 3.427146, "FECHA_HECH": "2023-06-01", "HORA_HECHO": "07:40", "ESTRATO": 2 }, "geometry": { "type": "Point", "coordinates": [ -76.486997, 3.427146 ] } },
{ "type": "Feature", "properties": { "DELITO": "VIOLENCIA INTRAFAMILIAR", "SITIO": "SIN INFORMACION", "COMUNA": 14, "NOM_COMUNA": "COMUNA 14", "BARRIO": 1402, "NOM_BARRIO": "Alirio Mora Beltrán", "DIRECCION": "76001 Centro Doc Julio Arboleda, Calle 76 26F, Alirio Mora Beltrán, Comuna 14, Cali, Valle del Cauca, COL,ALIRIO MORA BELTRÁN", "X": -76.480706, "Y": 3.435044, "FECHA_HECH": "2023-06-01", "HORA_HECHO": "12:30", "ESTRATO": 2 }, "geometry": { "type": "Point", "coordinates": [ -76.480706, 3.435044 ] } },
{ "type": "Feature", "properties": { "DELITO": "VIOLENCIA INTRAFAMILIAR", "SITIO": "SIN INFORMACION", "COMUNA": 14, "NOM_COMUNA": "COMUNA 14", "BARRIO": 1401, "NOM_BARRIO": "Alfonso Bonilla Aragón", "DIRECCION": "76001 Calle 74 27B 55, Alfonso Bonilla Aragón, Comuna 14, Cali, Valle del Cauca, COL,ALFONSO BONILLA ARAGÓN", "X": -76.485467, "Y": 3.422905, "FECHA_HECH": "2023-06-01", "HORA_HECHO": "02:30", "ESTRATO": 1 }, "geometry": { "type": "Point", "coordinates": [ -76.485467, 3.422905 ] } },
{ "type": "Feature", "properties": { "DELITO": "VIOLENCIA INTRAFAMILIAR", "SITIO": "DOMICILIO", "COMUNA": 14, "NOM_COMUNA": "COMUNA 14", "BARRIO": 1401, "NOM_BARRIO": "Alfonso Bonilla Aragón", "DIRECCION": "76001 TRANSVERSAL 103 CARRERA 28 2 16, LAS ORQUÍDEAS, COMUNA 14, CALI, VALLE DEL CAUCA", "X": -76.479422, "Y": 3.414335, "FECHA_HECH": "2023-06-02", "HORA_HECHO": "17:00", "ESTRATO": 1 }, "geometry": { "type": "Point", "coordinates": [ -76.479422, 3.414335 ] } },
{ "type": "Feature", "properties": { "DELITO": "VIOLENCIA INTRAFAMILIAR", "SITIO": "SIN INFORMACION", "COMUNA": 13, "NOM_COMUNA": "COMUNA 13", "BARRIO": 1310, "NOM_BARRIO": "Villa del Lago", "DIRECCION": "76001 Carrera 25C, Villa del Lago, Comuna 13, Cali, Valle del Cauca, COL,VILLA DEL LAGO", "X": -76.489911, "Y": 3.43805, "FECHA_HECH": "2023-06-02", "HORA_HECHO": "13:23", "ESTRATO": 3 }, "geometry": { "type": "Point", "coordinates": [ -76.489911, 3.43805 ] } },
{ "type": "Feature", "properties": { "DELITO": "VIOLENCIA INTRAFAMILIAR", "SITIO": "SIN INFORMACION", "COMUNA": 13, "NOM_COMUNA": "COMUNA 13", "BARRIO": 1301, "NOM_BARRIO": "Ulpiano Lloreda", "DIRECCION": "76001 BARRIO/LOCALIDAD/COMUNA:ULPIANO LLOREDA/COMUNA 13,CALI/VALLE DEL CAUCA,ULPIANO LLOREDA", "X": -76.490159, "Y": 3.441612, "FECHA_HECH": "2023-06-02", "HORA_HECHO": "00:30", "ESTRATO": 2 }, "geometry": { "type": "Point", "coordinates": [ -76.490159, 3.441612 ] } },
{ "type": "Feature", "properties": { "DELITO": "VIOLENCIA INTRAFAMILIAR", "SITIO": "SIN INFORMACION", "COMUNA": 14, "NOM_COMUNA": "COMUNA 14", "BARRIO": 1499, "NOM_BARRIO": "Los Naranjos II", "DIRECCION": "76001 Carrera 26G 78 35, Alirio Mora Beltrán, Comuna 14, Cali, Valle del Cauca, COL,ALIRIO MORA BELTRÁN", "X": -76.479143, "Y": 3.433586, "FECHA_HECH": "2023-06-04", "HORA_HECHO": "09:00", "ESTRATO": 1 }, "geometry": { "type": "Point", "coordinates": [ -76.479143, 3.433586 ] } },
{ "type": "Feature", "properties": { "DELITO": "VIOLENCIA INTRAFAMILIAR", "SITIO": "DOMICILIO", "COMUNA": 13, "NOM_COMUNA": "COMUNA 13", "BARRIO": 1312, "NOM_BARRIO": "Rodrigo Lara Bonilla", "DIRECCION": "76001 CARRERA 27 72P 6", "X": -76.489608, "Y": 3.427745, "FECHA_HECH": "2023-06-04", "HORA_HECHO": "10:00", "ESTRATO": 2 }, "geometry": { "type": "Point", "coordinates": [ -76.489608, 3.427745 ] } },
{ "type": "Feature", "properties": { "DELITO": "VIOLENCIA INTRAFAMILIAR", "SITIO": "SIN INFORMACION", "COMUNA": 13, "NOM_COMUNA": "COMUNA 13", "BARRIO": 1306, "NOM_BARRIO": "Ricardo Balcázar", "DIRECCION": "76001 Calle 72H2 26H3, Ricardo Balcazar, Comuna 13, Cali, Valle del Cauca, COL,RICARDO BALCAZAR", "X": -76.492195, "Y": 3.434375, "FECHA_HECH": "2023-06-05", "HORA_HECHO": "01:00", "ESTRATO": 2 }, "geometry": { "type": "Point", "coordinates": [ -76.492195, 3.434375 ] } },
{ "type": "Feature", "properties": { "DELITO": "VIOLENCIA INTRAFAMILIAR", "SITIO": "SIN INFORMACION", "COMUNA": 14, "NOM_COMUNA": "COMUNA 14", "BARRIO": 1406, "NOM_BARRIO": "José Manuel Marroquín I", "DIRECCION": "76001 Diagonal 26P, José Manuel Marroquin I, Comuna 14, Cali, Valle del Cauca, COL,JOSÉ MANUEL MARROQUIN I", "X": -76.47905, "Y": 3.426005, "FECHA_HECH": "2023-06-08", "HORA_HECHO": "16:40", "ESTRATO": 2 }, "geometry": { "type": "Point", "coordinates": [ -76.47905, 3.426005 ] } },
{ "type": "Feature", "properties": { "DELITO": "VIOLENCIA INTRAFAMILIAR", "SITIO": "SIN INFORMACION", "COMUNA": 14, "NOM_COMUNA": "COMUNA 14", "BARRIO": 1405, "NOM_BARRIO": "José Manuel Marroquín II", "DIRECCION": "76001 Transversal 87 Diagonal 26H 1-49, José Manuel Marroquin II, Comuna 14, Cali, Valle del Cauca, COL,JOSÉ MANUEL MARROQUIN II", "X": -76.480288, "Y": 3.430881, "FECHA_HECH": "2023-06-08", "HORA_HECHO": "11:00", "ESTRATO": 2 }, "geometry": { "type": "Point", "coordinates": [ -76.480288, 3.430881 ] } },
{ "type": "Feature", "properties": { "DELITO": "VIOLENCIA INTRAFAMILIAR", "SITIO": "SIN INFORMACION", "COMUNA": 14, "NOM_COMUNA": "COMUNA 14", "BARRIO": 1406, "NOM_BARRIO": "José Manuel Marroquín I", "DIRECCION": "76001 Diagonal 26M, José Manuel Marroquin I, Comuna 14, Cali, Valle del Cauca, COL,JOSÉ MANUEL MARROQUIN I", "X": -76.48104, "Y": 3.427044, "FECHA_HECH": "2023-06-09", "HORA_HECHO": "12:00", "ESTRATO": 2 }, "geometry": { "type": "Point", "coordinates": [ -76.48104, 3.427044 ] } },
{ "type": "Feature", "properties": { "DELITO": "VIOLENCIA INTRAFAMILIAR", "SITIO": "SIN INFORMACION", "COMUNA": 13, "NOM_COMUNA": "COMUNA 13", "BARRIO": 1306, "NOM_BARRIO": "Ricardo Balcázar", "DIRECCION": "76001 Diagonal 71A 1 38, Ricardo Balcazar, Comuna 13, Cali, Valle del Cauca, COL,RICARDO BALCAZAR", "X": -76.494946, "Y": 3.432923, "FECHA_HECH": "2023-06-09", "HORA_HECHO": "13:00", "ESTRATO": 2 }, "geometry": { "type": "Point", "coordinates": [ -76.494946, 3.432923 ] } },
{ "type": "Feature", "properties": { "DELITO": "VIOLENCIA INTRAFAMILIAR", "SITIO": "SIN INFORMACION", "COMUNA": 13, "NOM_COMUNA": "COMUNA 13", "BARRIO": 1307, "NOM_BARRIO": "Omar Torrijos", "DIRECCION": "76001 Calle 72X1 27 39, Omar Torrijos, Comuna 13, Cali, Valle del Cauca, COL,OMAR TORRIJOS", "X": -76.486262, "Y": 3.424843, "FECHA_HECH": "2023-06-09", "HORA_HECHO": "12:00", "ESTRATO": 2 }, "geometry": { "type": "Point", "coordinates": [ -76.486262, 3.424843 ] } },
{ "type": "Feature", "properties": { "DELITO": "VIOLENCIA INTRAFAMILIAR", "SITIO": "SIN INFORMACION", "COMUNA": 14, "NOM_COMUNA": "COMUNA 14", "BARRIO": 1401, "NOM_BARRIO": "Alfonso Bonilla Aragón", "DIRECCION": "76001 Calle 91 con Carrera 27, Alfonso Bonilla Aragón, Comuna 14, Cali, Valle del Cauca, COL,ALFONSO BONILLA ARAGÓN", "X": -76.48056, "Y": 3.41986, "FECHA_HECH": "2023-06-11", "HORA_HECHO": "05:00", "ESTRATO": 1 }, "geometry": { "type": "Point", "coordinates": [ -76.48056, 3.41986 ] } },