{
"type": "FeatureCollection",
"name": "BD_SINIESTROS_2023_2025_COMUNA_BARRIO_PULMON",
"crs": { "type": "name", "properties": { "name": "urn:ogc:def:crs:OGC:1.3:CRS84" } },
"features": [
{ "type": "Feature", "properties": { "ID": 3064, "X": 1066426.405, "Y": 869235.1082, "Codigo": "<Null>", "Fecha": "2023-07-06", "Año": 2023, "dia_sem": 4, "Tipo_Confi": "Lesiones", "direccion": "CLINICA OCCISALUD", "No_Vehicul": 2, "Tipo_de_Ve": "BUS PADRON", "comuna": 14, "nombre": "Comuna 14", "id_barrio": 1401, "barrio": "Alfonso Bonilla Aragón" }, "geometry": { "type": "Point", "coordinates": [ -76.479746753269453, 3.413474407441746 ] } },
{ "type": "Feature", "properties": { "ID": 3079, "X": 1066456.465, "Y": 869249.98, "Codigo": "<Null>", "Fecha": "2023-07-02", "Año": 2023, "dia_sem": 1, "Tipo_Confi": "Mortal", "direccion": "CL 103 KR 28D", "No_Vehicul": 1, "Tipo_de_Ve": "MOTOCICLETA,", "comuna": 14, "nombre": "Comuna 14", "id_barrio": 1401, "barrio": "Alfonso Bonilla Aragón" }, "geometry": { "type": "Point", "coordinates": [ -76.479476174629241, 3.413608722397675 ] } },
{ "type": "Feature", "properties": { "ID": 3080, "X": 1066448.27, "Y": 869250.8915, "Codigo": "AI024069", "Fecha": "2025-06-26", "Año": 2025, "dia_sem": 4, "Tipo_Confi": "Lesiones", "direccion": "CALLE 28 D TRANSVERSAL 103", "No_Vehicul": 2, "Tipo_de_Ve": "CAMION,MOTOCICLETA", "comuna": 14, "nombre": "Comuna 14", "id_barrio": 1401, "barrio": "Alfonso Bonilla Aragón" }, "geometry": { "type": "Point", "coordinates": [ -76.479549912400657, 3.413617011035489 ] } },
{ "type": "Feature", "properties": { "ID": 3083, "X": 1066474.277, "Y": 869256.0924, "Codigo": "AI017621", "Fecha": "2025-02-06", "Año": 2025, "dia_sem": 4, "Tipo_Confi": "Lesiones", "direccion": "CARRERA 28 D , CALLE 108", "No_Vehicul": 2, "Tipo_de_Ve": "MOTOCICLETA,MOTOCICLETA", "comuna": 14, "nombre": "Comuna 14", "id_barrio": 1404, "barrio": "Las Orquídeas" }, "geometry": { "type": "Point", "coordinates": [ -76.479315858806245, 3.413663895954822 ] } },
{ "type": "Feature", "properties": { "ID": 3233, "X": 1066002.4, "Y": 869368.1, "Codigo": "<Null>", "Fecha": "2023-06-21", "Año": 2023, "dia_sem": 4, "Tipo_Confi": "Mortal", "direccion": "KR 28D CL 95", "No_Vehicul": 1, "Tipo_de_Ve": "MOTOCICLETA,", "comuna": 15, "nombre": "Comuna 15", "id_barrio": 1598, "barrio": "Mojica" }, "geometry": { "type": "Point", "coordinates": [ -76.483561432758762, 3.414679411061531 ] } },
{ "type": "Feature", "properties": { "ID": 3238, "X": 1066030.947, "Y": 869373.5771, "Codigo": null, "Fecha": "2025-01-30", "Año": 2025, "dia_sem": 5, "Tipo_Confi": "Mortal", "direccion": "CL 96 KR 28D", "No_Vehicul": 2, "Tipo_de_Ve": "MOTOCICLETA,AUTOMOVIL", "comuna": 15, "nombre": "Comuna 15", "id_barrio": 1598, "barrio": "Mojica" }, "geometry": { "type": "Point", "coordinates": [ -76.483304521104131, 3.414728780405402 ] } },
{ "type": "Feature", "properties": { "ID": 3242, "X": 1066482.938, "Y": 869405.7476, "Codigo": "AI013101", "Fecha": "2024-10-23", "Año": 2024, "dia_sem": 3, "Tipo_Confi": "Lesiones", "direccion": "CALLE 103  , CARRERA 28", "No_Vehicul": 2, "Tipo_de_Ve": "MOTOCICLETA,MOTOCICLETA", "comuna": 14, "nombre": "Comuna 14", "id_barrio": 1404, "barrio": "Las Orquídeas" }, "geometry": { "type": "Point", "coordinates": [ -76.479237085133207, 3.415017160731662 ] } },
{ "type": "Feature", "properties": { "ID": 3282, "X": 1066482.938, "Y": 869405.7476, "Codigo": "AI016696", "Fecha": "2025-01-15", "Año": 2025, "dia_sem": 3, "Tipo_Confi": "Lesiones", "direccion": "CALLE 103  , CARRERA 28", "No_Vehicul": 2, "Tipo_de_Ve": "MOTOCICLETA,MOTOCICLETA", "comuna": 14, "nombre": "Comuna 14", "id_barrio": 1401, "barrio": "Alfonso Bonilla Aragón" }, "geometry": { "type": "Point", "coordinates": [ -76.479237085133207, 3.415017160731662 ] } },
{ "type": "Feature", "properties": { "ID": 3283, "X": 1066482.938, "Y": 869405.7476, "Codigo": "AI024303", "Fecha": "2025-07-02", "Año": 2025, "dia_sem": 4, "Tipo_Confi": "Lesiones", "direccion": "CALLE 103 CARRERA 28", "No_Vehicul": 2, "Tipo_de_Ve": "MOTOCICLETA,MOTOCICLETA", "comuna": 14, "nombre": "Comuna 14", "id_barrio": 1401, "barrio": "Alfonso Bonilla Aragón" }, "geometry": { "type": "Point", "coordinates": [ -76.479237085133207, 3.415017160731662 ] } },
{ "type": "Feature", "properties": { "ID": 3284, "X": 1066482.938, "Y": 869405.7476, "Codigo": "AI025900", "Fecha": "2025-08-03", "Año": 2025, "dia_sem": 7, "Tipo_Confi": "Lesiones", "direccion": "CALLE 103 CARRERA 28", "No_Vehicul": 2, "Tipo_de_Ve": "MOTOCICLETA,AUTOMOVIL", "comuna": 14, "nombre": "Comuna 14", "id_barrio": 1401, "barrio": "Alfonso Bonilla Aragón" }, "geometry": { "type": "Point", "coordinates": [ -76.479237085133207, 3.415017160731662 ] } },
{ "type": "Feature", "properties": { "ID": 3285, "X": 1066482.938, "Y": 869405.7476, "Codigo": "<Null>", "Fecha": "2023-07-31", "Año": 2023, "dia_sem": 2, "Tipo_Confi": "Mortal", "direccion": "CL 103 KR 28", "No_Vehicul": 1, "Tipo_de_Ve": "MOTOCICLETA,", "comuna": 14, "nombre": "Comuna 14", "id_barrio": 1401, "barrio": "Alfonso Bonilla Aragón" }, "geometry": { "type": "Point", "coordinates": [ -76.479237085133207, 3.415017160731662 ] } },
{ "type": "Feature", "properties": { "ID": 3286, "X": 1066482.938, "Y": 869405.7476, "Codigo": "<Null>", "Fecha": "2023-07-31", "Año": 2023, "dia_sem": 2, "Tipo_Confi": "Mortal", "direccion": "CL 103 KR 28", "No_Vehicul": 1, "Tipo_de_Ve": "MOTOCICLETA,", "comuna": 14, "nombre": "Comuna 14", "id_barrio": 1401, "barrio": "Alfonso Bonilla Aragón" }, "geometry": { "type": "Point", "coordinates": [ -76.479237085133207, 3.415017160731662 ] } },
{ "type": "Feature", "properties": { "ID": 3301, "X": 1065964.2, "Y": 869424.5, "Codigo": "AI021523", "Fecha": "2025-05-02", "Año": 2025, "dia_sem": 5, "Tipo_Confi": "Lesiones", "direccion": "CARRERA 28 D CALLE 92", "No_Vehicul": 2, "Tipo_de_Ve": "MOTOCICLETA,MOTOCICLETA", "comuna": 15, "nombre": "Comuna 15", "id_barrio": 1598, "barrio": "Mojica" }, "geometry": { "type": "Point", "coordinates": [ -76.483904863640049, 3.415189642950779 ] } },
{ "type": "Feature", "properties": { "ID": 3302, "X": 1065964.2, "Y": 869424.5, "Codigo": "AI024724", "Fecha": "2025-07-10", "Año": 2025, "dia_sem": 4, "Tipo_Confi": "Lesiones", "direccion": "CARRERA 28 D CALLE 92", "No_Vehicul": 2, "Tipo_de_Ve": "MOTOCICLETA,BICICLETA", "comuna": 15, "nombre": "Comuna 15", "id_barrio": 1598, "barrio": "Mojica" }, "geometry": { "type": "Point", "coordinates": [ -76.483904863640049, 3.415189642950779 ] } },
{ "type": "Feature", "properties": { "ID": 3393, "X": 1066485.31, "Y": 869494.0746000001, "Codigo": "<Null>", "Fecha": "2023-08-06", "Año": 2023, "dia_sem": 7, "Tipo_Confi": "Lesiones", "direccion": "Transversal 103 Con Carrera 27E", "No_Vehicul": 2, "Tipo_de_Ve": "MOTOCICLETA", "comuna": 14, "nombre": "Comuna 14", "id_barrio": 1401, "barrio": "Alfonso Bonilla Aragón" }, "geometry": { "type": "Point", "coordinates": [ -76.479215246148968, 3.415815877508934 ] } },
{ "type": "Feature", "properties": { "ID": 3396, "X": 1065930.218, "Y": 869457.773, "Codigo": "AI0002032", "Fecha": "2024-01-19", "Año": 2024, "dia_sem": 5, "Tipo_Confi": "Lesiones", "direccion": "CARRERA 28 d , CALLE 92", "No_Vehicul": 1, "Tipo_de_Ve": "BUS", "comuna": 15, "nombre": "Comuna 15", "id_barrio": 1598, "barrio": "Mojica" }, "geometry": { "type": "Point", "coordinates": [ -76.484210467381658, 3.415490716456342 ] } },
{ "type": "Feature", "properties": { "ID": 3397, "X": 1065958.001, "Y": 869430.9638, "Codigo": "AI008385", "Fecha": "2024-06-18", "Año": 2024, "dia_sem": 2, "Tipo_Confi": "Lesiones", "direccion": "CALLE 93  , CARRERA 28 D", "No_Vehicul": 2, "Tipo_de_Ve": "MOTOCICLETA,AUTOMOVIL", "comuna": 15, "nombre": "Comuna 15", "id_barrio": 1598, "barrio": "Mojica" }, "geometry": { "type": "Point", "coordinates": [ -76.483960609703558, 3.415248128940944 ] } },
{ "type": "Feature", "properties": { "ID": 3398, "X": 1065902.552, "Y": 869533.3676, "Codigo": "AI010235", "Fecha": "2024-08-10", "Año": 2024, "dia_sem": 6, "Tipo_Confi": "Lesiones", "direccion": "CARRERA 28 D , CALLE 90", "No_Vehicul": 2, "Tipo_de_Ve": "MOTOCICLETA,MOTOCICLETA", "comuna": 15, "nombre": "Comuna 15", "id_barrio": 1598, "barrio": "Mojica" }, "geometry": { "type": "Point", "coordinates": [ -76.484459001599916, 3.416174464021387 ] } },
{ "type": "Feature", "properties": { "ID": 3399, "X": 1065935.298, "Y": 869465.0151, "Codigo": "A001631456", "Fecha": "2024-03-31", "Año": 2024, "dia_sem": 7, "Tipo_Confi": "Mortal", "direccion": "Cl 92 Kr 28D", "No_Vehicul": 1, "Tipo_de_Ve": "Peatón", "comuna": 15, "nombre": "Comuna 15", "id_barrio": 1598, "barrio": "Mojica" }, "geometry": { "type": "Point", "coordinates": [ -76.484164714565708, 3.415556177586887 ] } },
{ "type": "Feature", "properties": { "ID": 3400, "X": 1065916.507, "Y": 869492.4428, "Codigo": "AI013299", "Fecha": "2024-10-27", "Año": 2024, "dia_sem": 7, "Tipo_Confi": "Lesiones", "direccion": "CARRERA 28 D , CALLE 91", "No_Vehicul": 3, "Tipo_de_Ve": "BUS,MOTOCICLETA,BUS", "comuna": 15, "nombre": "Comuna 15", "id_barrio": 1598, "barrio": "Mojica" }, "geometry": { "type": "Point", "coordinates": [ -76.484333653993431, 3.415804307938602 ] } },
{ "type": "Feature", "properties": { "ID": 3431, "X": 1066499.981, "Y": 869514.7325, "Codigo": "<Null>", "Fecha": "2023-08-06", "Año": 2023, "dia_sem": 1, "Tipo_Confi": "Mortal", "direccion": "TR 103 CL 27E", "No_Vehicul": 1, "Tipo_de_Ve": "PEATÓN,MOTOCICLETA", "comuna": 14, "nombre": "Comuna 14", "id_barrio": 1401, "barrio": "Alfonso Bonilla Aragón" }, "geometry": { "type": "Point", "coordinates": [ -76.479083112886698, 3.416002601779645 ] } },
{ "type": "Feature", "properties": { "ID": 3437, "X": 1066142.635, "Y": 869515.7736, "Codigo": "<Null>", "Fecha": "2023-06-21", "Año": 2023, "dia_sem": 3, "Tipo_Confi": "Daños", "direccion": "Calle 95 Con Carrera 28A", "No_Vehicul": 1, "Tipo_de_Ve": null, "comuna": 14, "nombre": "Comuna 14", "id_barrio": 1401, "barrio": "Alfonso Bonilla Aragón" }, "geometry": { "type": "Point", "coordinates": [ -76.482298700751841, 3.416014022035154 ] } },
{ "type": "Feature", "properties": { "ID": 3444, "X": 1065899.4, "Y": 869521.1, "Codigo": "AI030661", "Fecha": "2025-11-08", "Año": 2025, "dia_sem": 6, "Tipo_Confi": "Lesiones", "direccion": "CARRERA 28 D CALLE 90", "No_Vehicul": 1, "Tipo_de_Ve": "MOTOCICLETA", "comuna": 15, "nombre": "Comuna 15", "id_barrio": 1598, "barrio": "Mojica" }, "geometry": { "type": "Point", "coordinates": [ -76.484487433119313, 3.416063547109319 ] } },
{ "type": "Feature", "properties": { "ID": 3445, "X": 1065899.4, "Y": 869521.1, "Codigo": "AI031038", "Fecha": "2025-11-16", "Año": 2025, "dia_sem": 7, "Tipo_Confi": "Lesiones", "direccion": "CARRERA 28 D CALLE 90", "No_Vehicul": 2, "Tipo_de_Ve": "AUTOMOVIL,MOTOCICLETA", "comuna": 15, "nombre": "Comuna 15", "id_barrio": 1598, "barrio": "Mojica" }, "geometry": { "type": "Point", "coordinates": [ -76.484487433119313, 3.416063547109319 ] } },
{ "type": "Feature", "properties": { "ID": 3497, "X": 1066268.793, "Y": 869562.0086, "Codigo": "AI021267", "Fecha": "2025-04-27", "Año": 2025, "dia_sem": 7, "Tipo_Confi": "Lesiones", "direccion": "CALLE 96 CARRERA 28 A", "No_Vehicul": 2, "Tipo_de_Ve": "CAMPERO,MOTOCICLETA", "comuna": 14, "nombre": "Comuna 14", "id_barrio": 1401, "barrio": "Alfonso Bonilla Aragón" }, "geometry": { "type": "Point", "coordinates": [ -76.481163204176369, 3.416431412687285 ] } },
{ "type": "Feature", "properties": { "ID": 3498, "X": 1066266.386, "Y": 869562.2978, "Codigo": "<Null>", "Fecha": "2023-05-05", "Año": 2023, "dia_sem": 5, "Tipo_Confi": "Lesiones", "direccion": "Calle 96 Con Carrera 28", "No_Vehicul": 2, "Tipo_de_Ve": "MOTOCICLETA,MOTOCICLETA", "comuna": 14, "nombre": "Comuna 14", "id_barrio": 1401, "barrio": "Alfonso Bonilla Aragón" }, "geometry": { "type": "Point", "coordinates": [ -76.481184862068886, 3.416434041388713 ] } },
{ "type": "Feature", "properties": { "ID": 3502, "X": 1066511.261, "Y": 869564.7191, "Codigo": "AI026126", "Fecha": "2025-08-08", "Año": 2025, "dia_sem": 5, "Tipo_Confi": "Lesiones", "direccion": "CALLE 103 CARRERA 27 D", "No_Vehicul": 1, "Tipo_de_Ve": "MOTOCICLETA", "comuna": 14, "nombre": "Comuna 14", "id_barrio": 1401, "barrio": "Alfonso Bonilla Aragón" }, "geometry": { "type": "Point", "coordinates": [ -76.478981329335156, 3.416454560896068 ] } },
{ "type": "Feature", "properties": { "ID": 3504, "X": 1066266.841, "Y": 869566.3677, "Codigo": "AI016008", "Fecha": "2024-12-25", "Año": 2024, "dia_sem": 3, "Tipo_Confi": "Lesiones", "direccion": "CARRERA 28  , CALLE 96", "No_Vehicul": 2, "Tipo_de_Ve": "MOTOCICLETA,AUTOMOVIL", "comuna": 14, "nombre": "Comuna 14", "id_barrio": 1401, "barrio": "Alfonso Bonilla Aragón" }, "geometry": { "type": "Point", "coordinates": [ -76.481180745013347, 3.416470842450674 ] } },
{ "type": "Feature", "properties": { "ID": 3505, "X": 1066266.841, "Y": 869566.3677, "Codigo": "AI016152", "Fecha": "2024-12-29", "Año": 2024, "dia_sem": 7, "Tipo_Confi": "Lesiones", "direccion": "CARRERA 28  , CALLE 96", "No_Vehicul": 2, "Tipo_de_Ve": "MOTOCICLETA,BUS", "comuna": 14, "nombre": "Comuna 14", "id_barrio": 1401, "barrio": "Alfonso Bonilla Aragón" }, "geometry": { "type": "Point", "coordinates": [ -76.481180745013347, 3.416470842450674 ] } },
{ "type": "Feature", "properties": { "ID": 3518, "X": 1066500.105, "Y": 869577.529, "Codigo": "<Null>", "Fecha": "2023-12-17", "Año": 2023, "dia_sem": 7, "Tipo_Confi": "Lesiones", "direccion": "CARRERA 27 d  CALLE 103", "No_Vehicul": 2, "Tipo_de_Ve": "AUTOMOVIL,MOTOCICLETA", "comuna": 14, "nombre": "Comuna 14", "id_barrio": 1401, "barrio": "Alfonso Bonilla Aragón" }, "geometry": { "type": "Point", "coordinates": [ -76.479081645356572, 3.416570462028252 ] } },
{ "type": "Feature", "properties": { "ID": 3528, "X": 1066237.488, "Y": 869593.2855, "Codigo": "AI016837", "Fecha": "2025-01-18", "Año": 2025, "dia_sem": 6, "Tipo_Confi": "Lesiones", "direccion": "CARRERA 28  , CALLE 95", "No_Vehicul": 2, "Tipo_de_Ve": "MOTOCICLETA,BUS", "comuna": 14, "nombre": "Comuna 14", "id_barrio": 1401, "barrio": "Alfonso Bonilla Aragón" }, "geometry": { "type": "Point", "coordinates": [ -76.481444729250342, 3.416714421478452 ] } },
{ "type": "Feature", "properties": { "ID": 3529, "X": 1066237.488, "Y": 869593.2855, "Codigo": "AI012319", "Fecha": "2024-10-02", "Año": 2024, "dia_sem": 3, "Tipo_Confi": "Daños", "direccion": "CARRERA 28  , CALLE 95", "No_Vehicul": 2, "Tipo_de_Ve": "AUTOMOVIL,AUTOMOVIL", "comuna": 14, "nombre": "Comuna 14", "id_barrio": 1401, "barrio": "Alfonso Bonilla Aragón" }, "geometry": { "type": "Point", "coordinates": [ -76.481444729250342, 3.416714421478452 ] } },
{ "type": "Feature", "properties": { "ID": 3619, "X": 1066541.159, "Y": 869693.1899, "Codigo": "<Null>", "Fecha": "2023-10-04", "Año": 2023, "dia_sem": 3, "Tipo_Confi": "Lesiones", "direccion": "Carrera 27A Con Transversal 103", "No_Vehicul": 2, "Tipo_de_Ve": "AUTOMOVIL,MOTOCICLETA", "comuna": 14, "nombre": "Comuna 14", "id_barrio": 1401, "barrio": "Alfonso Bonilla Aragón" }, "geometry": { "type": "Point", "coordinates": [ -76.478711570692411, 3.417616137927578 ] } },
{ "type": "Feature", "properties": { "ID": 3646, "X": 1065725.7, "Y": 869716.9, "Codigo": "AI032746", "Fecha": "2025-12-20", "Año": 2025, "dia_sem": 6, "Tipo_Confi": "Daños", "direccion": "CALLE 83   CARRERA 28 D", "No_Vehicul": 1, "Tipo_de_Ve": "AUTOMOVIL", "comuna": 15, "nombre": "Comuna 15", "id_barrio": 1598, "barrio": "Mojica" }, "geometry": { "type": "Point", "coordinates": [ -76.486049397515401, 3.417835111888239 ] } },
{ "type": "Feature", "properties": { "ID": 3658, "X": 1065728.8, "Y": 869728.5, "Codigo": "AI027251", "Fecha": "2025-08-31", "Año": 2025, "dia_sem": 7, "Tipo_Confi": "Lesiones", "direccion": "CARRERA 28 D CALLE 83", "No_Vehicul": 3, "Tipo_de_Ve": "MOTOCICLETA,AUTOMOVIL,CAMIONETA", "comuna": 15, "nombre": "Comuna 15", "id_barrio": 1598, "barrio": "Mojica" }, "geometry": { "type": "Point", "coordinates": [ -76.486021437703172, 3.417939992123043 ] } },
{ "type": "Feature", "properties": { "ID": 3663, "X": 1066091.352, "Y": 869729.7223, "Codigo": "AI010921", "Fecha": "2024-08-29", "Año": 2024, "dia_sem": 4, "Tipo_Confi": "Lesiones", "direccion": "CALLE 90  , CARRERA 28", "No_Vehicul": 1, "Tipo_de_Ve": "MOTOCICLETA", "comuna": 14, "nombre": "Comuna 14", "id_barrio": 1401, "barrio": "Alfonso Bonilla Aragón" }, "geometry": { "type": "Point", "coordinates": [ -76.482758982074216, 3.417949021773427 ] } },
{ "type": "Feature", "properties": { "ID": 3688, "X": 1065744.164, "Y": 869745.0149, "Codigo": "AI028745", "Fecha": "2025-10-01", "Año": 2025, "dia_sem": 3, "Tipo_Confi": "Lesiones", "direccion": "CALLE 82 CARRERA 28 D", "No_Vehicul": 1, "Tipo_de_Ve": "BUS", "comuna": 15, "nombre": "Comuna 15", "id_barrio": 1598, "barrio": "Mojica" }, "geometry": { "type": "Point", "coordinates": [ -76.485883092173296, 3.418089248968317 ] } },
{ "type": "Feature", "properties": { "ID": 3694, "X": 1065709.932, "Y": 869756.0401, "Codigo": "AI016380", "Fecha": "2025-01-06", "Año": 2025, "dia_sem": 1, "Tipo_Confi": "Lesiones", "direccion": "CALLE 73  , CARRERA 28 D", "No_Vehicul": 2, "Tipo_de_Ve": "MOTOCICLETA,MOTOCICLETA", "comuna": 15, "nombre": "Comuna 15", "id_barrio": 1598, "barrio": "Mojica" }, "geometry": { "type": "Point", "coordinates": [ -76.486191070243251, 3.41818913913983 ] } },
{ "type": "Feature", "properties": { "ID": 3695, "X": 1065714.861, "Y": 869749.0604, "Codigo": "AI000001450", "Fecha": "2024-01-01", "Año": 2024, "dia_sem": 1, "Tipo_Confi": "Daños", "direccion": "CALLE 83  CARRERA 28 d", "No_Vehicul": 2, "Tipo_de_Ve": "BUS,AUTOMOVIL", "comuna": 14, "nombre": "Comuna 14", "id_barrio": 1401, "barrio": "Alfonso Bonilla Aragón" }, "geometry": { "type": "Point", "coordinates": [ -76.486146754927461, 3.418125995072045 ] } },
{ "type": "Feature", "properties": { "ID": 3696, "X": 1065714.628, "Y": 869748.3596, "Codigo": "AI002559", "Fecha": "2024-01-31", "Año": 2024, "dia_sem": 3, "Tipo_Confi": "Lesiones", "direccion": "CARRERA 28 D CALLE 73", "No_Vehicul": 2, "Tipo_de_Ve": "BUS,AUTOMOVIL", "comuna": 14, "nombre": "Comuna 14", "id_barrio": 1401, "barrio": "Alfonso Bonilla Aragón" }, "geometry": { "type": "Point", "coordinates": [ -76.486148855475676, 3.418119659113428 ] } },
{ "type": "Feature", "properties": { "ID": 3697, "X": 1065713.124, "Y": 869757.588, "Codigo": "AI004560", "Fecha": "2024-03-15", "Año": 2024, "dia_sem": 5, "Tipo_Confi": "Lesiones", "direccion": "CALLE 73 28 d", "No_Vehicul": 2, "Tipo_de_Ve": "MOTOCARRO,CAMION", "comuna": 14, "nombre": "Comuna 14", "id_barrio": 1401, "barrio": "Alfonso Bonilla Aragón" }, "geometry": { "type": "Point", "coordinates": [ -76.486162338225753, 3.418203118861983 ] } },
{ "type": "Feature", "properties": { "ID": 3698, "X": 1065689.295, "Y": 869761.5616, "Codigo": "AI005817", "Fecha": "2024-04-14", "Año": 2024, "dia_sem": 7, "Tipo_Confi": "Lesiones", "direccion": "CALLE 83  , CARRERA 28 d", "No_Vehicul": 2, "Tipo_de_Ve": "AUTOMOVIL,AUTOMOVIL", "comuna": 14, "nombre": "Comuna 14", "id_barrio": 1401, "barrio": "Alfonso Bonilla Aragón" }, "geometry": { "type": "Point", "coordinates": [ -76.486376743237699, 3.418239184261896 ] } },
{ "type": "Feature", "properties": { "ID": 3699, "X": 1065689.295, "Y": 869762.1538, "Codigo": "AI005991", "Fecha": "2024-04-18", "Año": 2024, "dia_sem": 4, "Tipo_Confi": "Lesiones", "direccion": "CALLE 83  , CARRERA 28 d", "No_Vehicul": 2, "Tipo_de_Ve": "BUS,BICICLETA", "comuna": 14, "nombre": "Comuna 14", "id_barrio": 1401, "barrio": "Alfonso Bonilla Aragón" }, "geometry": { "type": "Point", "coordinates": [ -76.486376739959468, 3.418244539459816 ] } },
{ "type": "Feature", "properties": { "ID": 3700, "X": 1065686.016, "Y": 869755.0469, "Codigo": "AI006861", "Fecha": "2024-05-10", "Año": 2024, "dia_sem": 5, "Tipo_Confi": "Lesiones", "direccion": "CARRERA 28 d , CALLE 73", "No_Vehicul": 1, "Tipo_de_Ve": "AUTOMOVIL", "comuna": 14, "nombre": "Comuna 14", "id_barrio": 1401, "barrio": "Alfonso Bonilla Aragón" }, "geometry": { "type": "Point", "coordinates": [ -76.486406285623374, 3.418180290803469 ] } },
{ "type": "Feature", "properties": { "ID": 3701, "X": 1065689.593, "Y": 869760.9694, "Codigo": "AI008671", "Fecha": "2024-06-26", "Año": 2024, "dia_sem": 3, "Tipo_Confi": "Lesiones", "direccion": "CARRERA 28 D , CALLE 83", "No_Vehicul": 1, "Tipo_de_Ve": "BUS", "comuna": 14, "nombre": "Comuna 14", "id_barrio": 1401, "barrio": "Alfonso Bonilla Aragón" }, "geometry": { "type": "Point", "coordinates": [ -76.486374064940904, 3.418233827406209 ] } },
{ "type": "Feature", "properties": { "ID": 3702, "X": 1065688.401, "Y": 869757.416, "Codigo": "AI009049", "Fecha": "2024-07-08", "Año": 2024, "dia_sem": 1, "Tipo_Confi": "Lesiones", "direccion": "CALLE 73  , CARRERA 28 D", "No_Vehicul": 1, "Tipo_de_Ve": "AUTOMOVIL", "comuna": 14, "nombre": "Comuna 14", "id_barrio": 1401, "barrio": "Alfonso Bonilla Aragón" }, "geometry": { "type": "Point", "coordinates": [ -76.486384810911275, 3.418201701041056 ] } },
{ "type": "Feature", "properties": { "ID": 3703, "X": 1065689.891, "Y": 869761.5616, "Codigo": null, "Fecha": null, "Año": 2024, "dia_sem": 0, "Tipo_Confi": "Mortal", "direccion": "Cl 83 Kr 28D", "No_Vehicul": 0, "Tipo_de_Ve": "PEATON,MOTOCICLETA", "comuna": 14, "nombre": "Comuna 14", "id_barrio": 1401, "barrio": "Alfonso Bonilla Aragón" }, "geometry": { "type": "Point", "coordinates": [ -76.48637138008759, 3.418239180946355 ] } },
{ "type": "Feature", "properties": { "ID": 3704, "X": 1065687.208, "Y": 869763.3382, "Codigo": "AI010297", "Fecha": "2024-08-13", "Año": 2024, "dia_sem": 2, "Tipo_Confi": "Lesiones", "direccion": "CALLE 83  , CARRERA 28 D", "No_Vehicul": 1, "Tipo_de_Ve": "BUS", "comuna": 14, "nombre": "Comuna 14", "id_barrio": 1401, "barrio": "Alfonso Bonilla Aragón" }, "geometry": { "type": "Point", "coordinates": [ -76.486395513427311, 3.418255261465433 ] } },
{ "type": "Feature", "properties": { "ID": 3705, "X": 1066551.953, "Y": 869757.8155, "Codigo": "<Null>", "Fecha": "2023-08-13", "Año": 2023, "dia_sem": 7, "Tipo_Confi": "Daños", "direccion": "Tr 103 Con Calle 27", "No_Vehicul": 2, "Tipo_de_Ve": "AUTOMOVIL", "comuna": 14, "nombre": "Comuna 14", "id_barrio": 1401, "barrio": "Alfonso Bonilla Aragón" }, "geometry": { "type": "Point", "coordinates": [ -76.478614077873061, 3.418200478309052 ] } },
{ "type": "Feature", "properties": { "ID": 3709, "X": 1066553.215, "Y": 869758.6642, "Codigo": "<Null>", "Fecha": "2023-02-13", "Año": 2023, "dia_sem": 1, "Tipo_Confi": "Lesiones", "direccion": "Carrera 27 Con Calle 103", "No_Vehicul": 2, "Tipo_de_Ve": "AUTOMOVIL,MOTOCICLETA", "comuna": 14, "nombre": "Comuna 14", "id_barrio": 1401, "barrio": "Alfonso Bonilla Aragón" }, "geometry": { "type": "Point", "coordinates": [ -76.478602716929302, 3.418208145884077 ] } },
{ "type": "Feature", "properties": { "ID": 3710, "X": 1066552.792, "Y": 869758.8864, "Codigo": "<Null>", "Fecha": "2023-06-24", "Año": 2023, "dia_sem": 6, "Tipo_Confi": "Lesiones", "direccion": "Calle 103 Con Carrera 27", "No_Vehicul": 2, "Tipo_de_Ve": "AUTOMOVIL,AUTOMOVIL", "comuna": 14, "nombre": "Comuna 14", "id_barrio": 1401, "barrio": "Alfonso Bonilla Aragón" }, "geometry": { "type": "Point", "coordinates": [ -76.478606522074401, 3.418210157594859 ] } },
{ "type": "Feature", "properties": { "ID": 3711, "X": 1066552.421, "Y": 869758.9817, "Codigo": "<Null>", "Fecha": "2023-04-02", "Año": 2023, "dia_sem": 7, "Tipo_Confi": "Lesiones", "direccion": "Carrera 27 Con Calle 103", "No_Vehicul": 2, "Tipo_de_Ve": "AUTOMOVIL,MOTOCICLETA", "comuna": 14, "nombre": "Comuna 14", "id_barrio": 1401, "barrio": "Alfonso Bonilla Aragón" }, "geometry": { "type": "Point", "coordinates": [ -76.47860986000606, 3.418211021471772 ] } },
{ "type": "Feature", "properties": { "ID": 3712, "X": 1066553.638, "Y": 869758.9817, "Codigo": "<Null>", "Fecha": "2023-08-17", "Año": 2023, "dia_sem": 4, "Tipo_Confi": "Lesiones", "direccion": "Kr 27 Con Calle 103", "No_Vehicul": 2, "Tipo_de_Ve": "AUTOMOVIL,MOTOCICLETA", "comuna": 14, "nombre": "Comuna 14", "id_barrio": 1401, "barrio": "Alfonso Bonilla Aragón" }, "geometry": { "type": "Point", "coordinates": [ -76.478598908757306, 3.418211014612689 ] } },
{ "type": "Feature", "properties": { "ID": 3714, "X": 1066551.168, "Y": 869759.6478, "Codigo": "<Null>", "Fecha": "2023-09-03", "Año": 2023, "dia_sem": 7, "Tipo_Confi": "Lesiones", "direccion": "Transversal 103 Con Carrera 27", "No_Vehicul": 2, "Tipo_de_Ve": "MOTOCICLETA,MOTOCICLETA", "comuna": 14, "nombre": "Comuna 14", "id_barrio": 1401, "barrio": "Alfonso Bonilla Aragón" }, "geometry": { "type": "Point", "coordinates": [ -76.478621131467349, 3.418217051992402 ] } },
{ "type": "Feature", "properties": { "ID": 3715, "X": 1066546.247, "Y": 869759.8703, "Codigo": null, "Fecha": "2025-08-08", "Año": 2025, "dia_sem": 2, "Tipo_Confi": "Mortal", "direccion": "KR 27 TR 103", "No_Vehicul": 1, "Tipo_de_Ve": null, "comuna": 14, "nombre": "Comuna 14", "id_barrio": 1401, "barrio": "Alfonso Bonilla Aragón" }, "geometry": { "type": "Point", "coordinates": [ -76.478665412138909, 3.418219091765309 ] } },
{ "type": "Feature", "properties": { "ID": 3717, "X": 1065701.586, "Y": 869760.7928000001, "Codigo": "<Null>", "Fecha": "2023-12-16", "Año": 2023, "dia_sem": 6, "Tipo_Confi": "Lesiones", "direccion": "CALLE 73  ORIENTE CARRERA 28 d", "No_Vehicul": 1, "Tipo_de_Ve": null, "comuna": 14, "nombre": "Comuna 14", "id_barrio": 1401, "barrio": "Alfonso Bonilla Aragón" }, "geometry": { "type": "Point", "coordinates": [ -76.486266146022004, 3.418232163709415 ] } },
{ "type": "Feature", "properties": { "ID": 3718, "X": 1065703.816, "Y": 869761.2145, "Codigo": "<Null>", "Fecha": "2023-10-28", "Año": 2023, "dia_sem": 6, "Tipo_Confi": "Lesiones", "direccion": "Calle 73 Con Carrera 28D", "No_Vehicul": 2, "Tipo_de_Ve": "BUS ARTICULADO", "comuna": 15, "nombre": "Comuna 15", "id_barrio": 1598, "barrio": "Mojica" }, "geometry": { "type": "Point", "coordinates": [ -76.486246076867573, 3.418235964687028 ] } },
{ "type": "Feature", "properties": { "ID": 3719, "X": 1065700.806, "Y": 869761.3511, "Codigo": "<Null>", "Fecha": "2023-02-20", "Año": 2023, "dia_sem": 1, "Tipo_Confi": "Lesiones", "direccion": "Calle 83 Con Carrera 28D", "No_Vehicul": 2, "Tipo_de_Ve": "AUTOMOVIL,AUTOMOVIL", "comuna": 14, "nombre": "Comuna 14", "id_barrio": 1401, "barrio": "Alfonso Bonilla Aragón" }, "geometry": { "type": "Point", "coordinates": [ -76.486273161818431, 3.418237216693247 ] } },
{ "type": "Feature", "properties": { "ID": 3720, "X": 1065700.324, "Y": 869761.4262, "Codigo": "<Null>", "Fecha": "2023-04-30", "Año": 2023, "dia_sem": 7, "Tipo_Confi": "Lesiones", "direccion": "Carrera 28D Con Calle 73", "No_Vehicul": 2, "Tipo_de_Ve": "MOTOCICLETA,MOTOCICLETA", "comuna": 14, "nombre": "Comuna 14", "id_barrio": 1401, "barrio": "Alfonso Bonilla Aragón" }, "geometry": { "type": "Point", "coordinates": [ -76.486277498715239, 3.418237898495886 ] } },
{ "type": "Feature", "properties": { "ID": 3721, "X": 1065700.853, "Y": 869761.4262, "Codigo": "<Null>", "Fecha": "2023-06-23", "Año": 2023, "dia_sem": 5, "Tipo_Confi": "Lesiones", "direccion": "Calle 73 Con Carrera 28 D", "No_Vehicul": 2, "Tipo_de_Ve": "BUS PADRON", "comuna": 14, "nombre": "Comuna 14", "id_barrio": 1401, "barrio": "Alfonso Bonilla Aragón" }, "geometry": { "type": "Point", "coordinates": [ -76.486272738469665, 3.418237895552573 ] } },
{ "type": "Feature", "properties": { "ID": 3722, "X": 1065704.028, "Y": 869761.4262, "Codigo": "<Null>", "Fecha": "2023-08-16", "Año": 2023, "dia_sem": 3, "Tipo_Confi": "Lesiones", "direccion": "Calle 73 Con Kr 28D", "No_Vehicul": 2, "Tipo_de_Ve": "BUS ARTICULADO", "comuna": 15, "nombre": "Comuna 15", "id_barrio": 1598, "barrio": "Mojica" }, "geometry": { "type": "Point", "coordinates": [ -76.486244167997754, 3.418237877886635 ] } },
{ "type": "Feature", "properties": { "ID": 3723, "X": 1065700.324, "Y": 869761.532, "Codigo": "<Null>", "Fecha": "2023-02-28", "Año": 2023, "dia_sem": 2, "Tipo_Confi": "Lesiones", "direccion": "Calle 73 Con Carrera 28D", "No_Vehicul": 2, "Tipo_de_Ve": null, "comuna": 14, "nombre": "Comuna 14", "id_barrio": 1401, "barrio": "Alfonso Bonilla Aragón" }, "geometry": { "type": "Point", "coordinates": [ -76.486277498129468, 3.418238855233356 ] } },
{ "type": "Feature", "properties": { "ID": 3724, "X": 1065701.805, "Y": 869761.532, "Codigo": "<Null>", "Fecha": "2023-10-21", "Año": 2023, "dia_sem": 6, "Tipo_Confi": "Lesiones", "direccion": "Calle 73 Con Carrera 28D", "No_Vehicul": 2, "Tipo_de_Ve": "AUTOMOVIL,MOTOCICLETA", "comuna": 15, "nombre": "Comuna 15", "id_barrio": 1598, "barrio": "Mojica" }, "geometry": { "type": "Point", "coordinates": [ -76.486264171241572, 3.418238846993132 ] } },
{ "type": "Feature", "properties": { "ID": 3725, "X": 1065701.964, "Y": 869761.8495, "Codigo": "<Null>", "Fecha": "2023-02-22", "Año": 2023, "dia_sem": 3, "Tipo_Confi": "Lesiones", "direccion": "Calle 73 Con Carrera 28D", "No_Vehicul": 3, "Tipo_de_Ve": "AUTOMOVIL,AUTOMOVIL,MOTOCICLETA", "comuna": 15, "nombre": "Comuna 15", "id_barrio": 1598, "barrio": "Mojica" }, "geometry": { "type": "Point", "coordinates": [ -76.486262738710408, 3.418241717225143 ] } },
{ "type": "Feature", "properties": { "ID": 3726, "X": 1065699.991, "Y": 869761.9332, "Codigo": "<Null>", "Fecha": "2023-10-07", "Año": 2023, "dia_sem": 6, "Tipo_Confi": "Lesiones", "direccion": "Calle 83 Con Carrera 28D", "No_Vehicul": 2, "Tipo_de_Ve": "AUTOMOVIL,CAMPERO", "comuna": 14, "nombre": "Comuna 14", "id_barrio": 1401, "barrio": "Alfonso Bonilla Aragón" }, "geometry": { "type": "Point", "coordinates": [ -76.486280492433266, 3.418242485092493 ] } },
{ "type": "Feature", "properties": { "ID": 3727, "X": 1065699.265, "Y": 869761.9554, "Codigo": "<Null>", "Fecha": "2023-09-06", "Año": 2023, "dia_sem": 3, "Tipo_Confi": "Lesiones", "direccion": "Calle  73 Con Carrera 28D", "No_Vehicul": 2, "Tipo_de_Ve": "MOTOCICLETA", "comuna": 14, "nombre": "Comuna 14", "id_barrio": 1401, "barrio": "Alfonso Bonilla Aragón" }, "geometry": { "type": "Point", "coordinates": [ -76.486287025275033, 3.41824268988394 ] } },
{ "type": "Feature", "properties": { "ID": 3728, "X": 1065700.224, "Y": 869762.039, "Codigo": "<Null>", "Fecha": "2023-04-14", "Año": 2023, "dia_sem": 5, "Tipo_Confi": "Lesiones", "direccion": "Calle 83 Con Carrera 28 D", "No_Vehicul": 2, "Tipo_de_Ve": "BUSETA", "comuna": 14, "nombre": "Comuna 14", "id_barrio": 1401, "barrio": "Alfonso Bonilla Aragón" }, "geometry": { "type": "Point", "coordinates": [ -76.486278395179781, 3.418243440533578 ] } },
{ "type": "Feature", "properties": { "ID": 3730, "X": 1065699.689, "Y": 869762.167, "Codigo": "<Null>", "Fecha": "2023-03-10", "Año": 2023, "dia_sem": 5, "Tipo_Confi": "Lesiones", "direccion": "Calle 73 Con Carrera 28D", "No_Vehicul": 1, "Tipo_de_Ve": "BUS ARTICULADO", "comuna": 14, "nombre": "Comuna 14", "id_barrio": 1401, "barrio": "Alfonso Bonilla Aragón" }, "geometry": { "type": "Point", "coordinates": [ -76.48628320870813, 3.418244600999818 ] } },
{ "type": "Feature", "properties": { "ID": 3731, "X": 1065701.647, "Y": 869762.2199, "Codigo": "<Null>", "Fecha": "2023-05-10", "Año": 2023, "dia_sem": 3, "Tipo_Confi": "Lesiones", "direccion": "Calle 73 Con Carrera 28D", "No_Vehicul": 2, "Tipo_de_Ve": "BUS PADRON", "comuna": 14, "nombre": "Comuna 14", "id_barrio": 1401, "barrio": "Alfonso Bonilla Aragón" }, "geometry": { "type": "Point", "coordinates": [ -76.48626558920752, 3.418245068474367 ] } },
{ "type": "Feature", "properties": { "ID": 3732, "X": 1065700.753, "Y": 869762.3565, "Codigo": "<Null>", "Fecha": "2023-07-01", "Año": 2023, "dia_sem": 6, "Tipo_Confi": "Lesiones", "direccion": "Calle 83 Con Carrera 28D", "No_Vehicul": 2, "Tipo_de_Ve": "MOTOCICLETA,\"BUS PADRON\"", "comuna": 14, "nombre": "Comuna 14", "id_barrio": 1401, "barrio": "Alfonso Bonilla Aragón" }, "geometry": { "type": "Point", "coordinates": [ -76.486273633176282, 3.418246308706963 ] } },
{ "type": "Feature", "properties": { "ID": 3733, "X": 1065704.134, "Y": 869762.3787, "Codigo": "<Null>", "Fecha": "2023-09-26", "Año": 2023, "dia_sem": 2, "Tipo_Confi": "Lesiones", "direccion": "Calle 73 Con Carrera 28D", "No_Vehicul": 2, "Tipo_de_Ve": "BUS ARTICULADO,\"BUS PADRON\"", "comuna": 15, "nombre": "Comuna 15", "id_barrio": 1598, "barrio": "Mojica" }, "geometry": { "type": "Point", "coordinates": [ -76.486243208874981, 3.418246490646874 ] } },
{ "type": "Feature", "properties": { "ID": 3734, "X": 1065699.795, "Y": 869762.4845, "Codigo": "<Null>", "Fecha": "2023-05-20", "Año": 2023, "dia_sem": 6, "Tipo_Confi": "Daños", "direccion": "Calle 73 Con Carrera 28D", "No_Vehicul": 0, "Tipo_de_Ve": null, "comuna": 14, "nombre": "Comuna 14", "id_barrio": 1401, "barrio": "Alfonso Bonilla Aragón" }, "geometry": { "type": "Point", "coordinates": [ -76.486282253101436, 3.418247471526751 ] } },
{ "type": "Feature", "properties": { "ID": 3735, "X": 1065701.117, "Y": 869762.4845, "Codigo": "<Null>", "Fecha": "2023-07-31", "Año": 2023, "dia_sem": 1, "Tipo_Confi": "Lesiones", "direccion": "Calle 73 Con Carrera 28D", "No_Vehicul": 2, "Tipo_de_Ve": "MOTOCICLETA,MOTOCICLETA", "comuna": 14, "nombre": "Comuna 14", "id_barrio": 1401, "barrio": "Alfonso Bonilla Aragón" }, "geometry": { "type": "Point", "coordinates": [ -76.48627035698668, 3.418247464171245 ] } },
{ "type": "Feature", "properties": { "ID": 3736, "X": 1065700.277, "Y": 869762.674, "Codigo": "<Null>", "Fecha": "2023-07-24", "Año": 2023, "dia_sem": 1, "Tipo_Confi": "Lesiones", "direccion": "Calle 83 Con Carrera 28d", "No_Vehicul": 2, "Tipo_de_Ve": "MOTOCICLETA,MOTOCICLETA", "comuna": 14, "nombre": "Comuna 14", "id_barrio": 1401, "barrio": "Alfonso Bonilla Aragón" }, "geometry": { "type": "Point", "coordinates": [ -76.486277914739603, 3.41824918247209 ] } },
{ "type": "Feature", "properties": { "ID": 3737, "X": 1065703.611, "Y": 869762.674, "Codigo": "<Null>", "Fecha": "2023-08-30", "Año": 2023, "dia_sem": 3, "Tipo_Confi": "Lesiones", "direccion": "Calle 83 Con Carrera 28D", "No_Vehicul": 3, "Tipo_de_Ve": "AUTOMOVIL,CAMIONETA,MOTOCICLETA", "comuna": 15, "nombre": "Comuna 15", "id_barrio": 1598, "barrio": "Mojica" }, "geometry": { "type": "Point", "coordinates": [ -76.486247913494083, 3.418249163921543 ] } },
{ "type": "Feature", "properties": { "ID": 3738, "X": 1065701.071, "Y": 869763.0973, "Codigo": "<Null>", "Fecha": "2023-09-06", "Año": 2023, "dia_sem": 3, "Tipo_Confi": "Lesiones", "direccion": "Calle 83 Con Carrera 28D", "No_Vehicul": 2, "Tipo_de_Ve": "MOTOCICLETA,\"BUS ALIMENTADOR\"", "comuna": 14, "nombre": "Comuna 14", "id_barrio": 1401, "barrio": "Alfonso Bonilla Aragón" }, "geometry": { "type": "Point", "coordinates": [ -76.486270767528183, 3.418253005908483 ] } },
{ "type": "Feature", "properties": { "ID": 3739, "X": 1065689.593, "Y": 869763.3386, "Codigo": "AI018995", "Fecha": "2025-03-08", "Año": 2025, "dia_sem": 6, "Tipo_Confi": "Lesiones", "direccion": "CALLE 83  , CARRERA 28 D", "No_Vehicul": 3, "Tipo_de_Ve": "AUTOMOVIL,AUTOMOVIL,AUTOMOVIL", "comuna": 14, "nombre": "Comuna 14", "id_barrio": 1401, "barrio": "Alfonso Bonilla Aragón" }, "geometry": { "type": "Point", "coordinates": [ -76.486374051825621, 3.418255251815037 ] } },
{ "type": "Feature", "properties": { "ID": 3746, "X": 1066032.4, "Y": 869778.7, "Codigo": "AI033016", "Fecha": "2025-12-25", "Año": 2025, "dia_sem": 4, "Tipo_Confi": "Lesiones", "direccion": "CALLE 87 CARRERA 28", "No_Vehicul": 2, "Tipo_de_Ve": "MOTOCICLETA,MOTOCICLETA", "comuna": 14, "nombre": "Comuna 14", "id_barrio": 1401, "barrio": "Alfonso Bonilla Aragón" }, "geometry": { "type": "Point", "coordinates": [ -76.483289192991506, 3.418392251131726 ] } },
{ "type": "Feature", "properties": { "ID": 3756, "X": 1065698.1, "Y": 869787.9, "Codigo": "AI019504", "Fecha": "2025-03-19", "Año": 2025, "dia_sem": 3, "Tipo_Confi": "Lesiones", "direccion": "CALLE 73  , CARRERA 28 D", "No_Vehicul": 2, "Tipo_de_Ve": "MOTOCICLETA,MOTOCICLETA", "comuna": 14, "nombre": "Comuna 14", "id_barrio": 1401, "barrio": "Alfonso Bonilla Aragón" }, "geometry": { "type": "Point", "coordinates": [ -76.486297364967683, 3.418477310458332 ] } },
{ "type": "Feature", "properties": { "ID": 3757, "X": 1065698.1, "Y": 869787.9, "Codigo": "AI030437", "Fecha": "2025-11-04", "Año": 2025, "dia_sem": 2, "Tipo_Confi": "Lesiones", "direccion": "CALLE 73 CARRERA 28 D", "No_Vehicul": 2, "Tipo_de_Ve": "BUS,BUS", "comuna": 14, "nombre": "Comuna 14", "id_barrio": 1401, "barrio": "Alfonso Bonilla Aragón" }, "geometry": { "type": "Point", "coordinates": [ -76.486297364967683, 3.418477310458332 ] } },
{ "type": "Feature", "properties": { "ID": 3758, "X": 1065698.1, "Y": 869787.9, "Codigo": "AI030462", "Fecha": "2025-11-05", "Año": 2025, "dia_sem": 3, "Tipo_Confi": "Daños", "direccion": "CALLE 73 CARRERA 28 D", "No_Vehicul": 2, "Tipo_de_Ve": "BUS,BUS", "comuna": 14, "nombre": "Comuna 14", "id_barrio": 1401, "barrio": "Alfonso Bonilla Aragón" }, "geometry": { "type": "Point", "coordinates": [ -76.486297364967683, 3.418477310458332 ] } },
{ "type": "Feature", "properties": { "ID": 3759, "X": 1065698.1, "Y": 869787.9, "Codigo": null, "Fecha": "2025-11-04", "Año": 2025, "dia_sem": 3, "Tipo_Confi": "Mortal", "direccion": "CL 73 KR 28D", "No_Vehicul": 1, "Tipo_de_Ve": "PEATÓN,BUS_MIO", "comuna": 14, "nombre": "Comuna 14", "id_barrio": 1401, "barrio": "Alfonso Bonilla Aragón" }, "geometry": { "type": "Point", "coordinates": [ -76.486297364967683, 3.418477310458332 ] } },
{ "type": "Feature", "properties": { "ID": 3760, "X": 1065698.1, "Y": 869787.9, "Codigo": "AI031812", "Fecha": "2025-12-02", "Año": 2025, "dia_sem": 2, "Tipo_Confi": "Lesiones", "direccion": "CALLE 73 CARRERA 28 D", "No_Vehicul": 2, "Tipo_de_Ve": "MOTOCICLETA,MICROBUS", "comuna": 14, "nombre": "Comuna 14", "id_barrio": 1401, "barrio": "Alfonso Bonilla Aragón" }, "geometry": { "type": "Point", "coordinates": [ -76.486297364967683, 3.418477310458332 ] } },
{ "type": "Feature", "properties": { "ID": 3761, "X": 1065698.1, "Y": 869787.9, "Codigo": "AI033060", "Fecha": "2025-12-26", "Año": 2025, "dia_sem": 5, "Tipo_Confi": "Lesiones", "direccion": "CALLE 73 CARRERA 28 D", "No_Vehicul": 2, "Tipo_de_Ve": "BUS,AUTOMOVIL", "comuna": 14, "nombre": "Comuna 14", "id_barrio": 1401, "barrio": "Alfonso Bonilla Aragón" }, "geometry": { "type": "Point", "coordinates": [ -76.486297364967683, 3.418477310458332 ] } },
{ "type": "Feature", "properties": { "ID": 3769, "X": 1066560.877, "Y": 869845.5346, "Codigo": "AI010046", "Fecha": "2024-08-04", "Año": 2024, "dia_sem": 7, "Tipo_Confi": "Lesiones", "direccion": "CARRERA 26 P , TRANSVERSAL 103", "No_Vehicul": 1, "Tipo_de_Ve": "MOTOCICLETA", "comuna": 14, "nombre": "Comuna 14", "id_barrio": 1401, "barrio": "Alfonso Bonilla Aragón" }, "geometry": { "type": "Point", "coordinates": [ -76.478533282634785, 3.418993660813802 ] } },
{ "type": "Feature", "properties": { "ID": 3789, "X": 1066479.431, "Y": 869802.8525, "Codigo": "<Null>", "Fecha": "2023-05-20", "Año": 2023, "dia_sem": 6, "Tipo_Confi": "Lesiones", "direccion": "Calle 96 Con Carrera 27", "No_Vehicul": 2, "Tipo_de_Ve": "CAMPERO,MOTOCICLETA", "comuna": 14, "nombre": "Comuna 14", "id_barrio": 1401, "barrio": "Alfonso Bonilla Aragón" }, "geometry": { "type": "Point", "coordinates": [ -76.479266419225539, 3.418608150807298 ] } },
{ "type": "Feature", "properties": { "ID": 3790, "X": 1066484.299, "Y": 869804.3457, "Codigo": "AI015247", "Fecha": "2024-12-10", "Año": 2024, "dia_sem": 2, "Tipo_Confi": "Lesiones", "direccion": "CALLE 96  , CARRERA 27", "No_Vehicul": 1, "Tipo_de_Ve": "MOTOCICLETA", "comuna": 14, "nombre": "Comuna 14", "id_barrio": 1401, "barrio": "Alfonso Bonilla Aragón" }, "geometry": { "type": "Point", "coordinates": [ -76.479222605840505, 3.418621626218859 ] } },
{ "type": "Feature", "properties": { "ID": 3824, "X": 1066563.262, "Y": 869845.535, "Codigo": "AI019885", "Fecha": "2025-03-27", "Año": 2025, "dia_sem": 4, "Tipo_Confi": "Lesiones", "direccion": "TRANSVERSAL 103 , CARRERA 26 P", "No_Vehicul": 1, "Tipo_de_Ve": "MOTOCICLETA", "comuna": 14, "nombre": "Comuna 14", "id_barrio": 1401, "barrio": "Alfonso Bonilla Aragón" }, "geometry": { "type": "Point", "coordinates": [ -76.478511821047462, 3.418993650984043 ] } },
{ "type": "Feature", "properties": { "ID": 3902, "X": 1066327.855, "Y": 869886.8103, "Codigo": "AI018707", "Fecha": "2025-03-02", "Año": 2025, "dia_sem": 7, "Tipo_Confi": "Daños", "direccion": "CARRERA 27 A , CALLE 91", "No_Vehicul": 1, "Tipo_de_Ve": "CAMPERO", "comuna": 14, "nombre": "Comuna 14", "id_barrio": 1401, "barrio": "Alfonso Bonilla Aragón" }, "geometry": { "type": "Point", "coordinates": [ -76.480629916620416, 3.419368223405944 ] } },
{ "type": "Feature", "properties": { "ID": 3921, "X": 1065918.136, "Y": 869892.7548, "Codigo": "AI005940", "Fecha": "2024-04-17", "Año": 2024, "dia_sem": 3, "Tipo_Confi": "Lesiones", "direccion": "CARRERA 28  , CALLE 83", "No_Vehicul": 2, "Tipo_de_Ve": "MOTOCICLETA,MOTOCICLETA", "comuna": 14, "nombre": "Comuna 14", "id_barrio": 1401, "barrio": "Alfonso Bonilla Aragón" }, "geometry": { "type": "Point", "coordinates": [ -76.484316772039875, 3.419424273888214 ] } },
{ "type": "Feature", "properties": { "ID": 3922, "X": 1065916.944, "Y": 869895.1236, "Codigo": "AI009793", "Fecha": "2024-07-28", "Año": 2024, "dia_sem": 7, "Tipo_Confi": "Lesiones", "direccion": "CALLE 83  , CARRERA 28", "No_Vehicul": 2, "Tipo_de_Ve": "MOTOCICLETA,AUTOMOVIL", "comuna": 14, "nombre": "Comuna 14", "id_barrio": 1401, "barrio": "Alfonso Bonilla Aragón" }, "geometry": { "type": "Point", "coordinates": [ -76.484327485186242, 3.419445701327797 ] } },
{ "type": "Feature", "properties": { "ID": 3923, "X": 1065918.137, "Y": 869891.5703, "Codigo": "AI010718", "Fecha": "2024-08-23", "Año": 2024, "dia_sem": 5, "Tipo_Confi": "Lesiones", "direccion": "CARRERA 28  , CALLE 83", "No_Vehicul": 1, "Tipo_de_Ve": "MOTOCICLETA", "comuna": 14, "nombre": "Comuna 14", "id_barrio": 1401, "barrio": "Alfonso Bonilla Aragón" }, "geometry": { "type": "Point", "coordinates": [ -76.484316769623447, 3.419413562586768 ] } },
{ "type": "Feature", "properties": { "ID": 3924, "X": 1065918.137, "Y": 869892.7551, "Codigo": "AI011501", "Fecha": "2024-09-12", "Año": 2024, "dia_sem": 4, "Tipo_Confi": "Lesiones", "direccion": "CALLE 83  , CARRERA 28", "No_Vehicul": 2, "Tipo_de_Ve": "AUTOMOVIL,MOTOCICLETA", "comuna": 14, "nombre": "Comuna 14", "id_barrio": 1401, "barrio": "Alfonso Bonilla Aragón" }, "geometry": { "type": "Point", "coordinates": [ -76.484316763039615, 3.419424276595494 ] } },
{ "type": "Feature", "properties": { "ID": 3925, "X": 1065918.137, "Y": 869892.7551, "Codigo": "AI012270", "Fecha": "2024-10-01", "Año": 2024, "dia_sem": 2, "Tipo_Confi": "Lesiones", "direccion": "CALLE 83  , CARRERA 28", "No_Vehicul": 1, "Tipo_de_Ve": "BUS", "comuna": 14, "nombre": "Comuna 14", "id_barrio": 1401, "barrio": "Alfonso Bonilla Aragón" }, "geometry": { "type": "Point", "coordinates": [ -76.484316763039615, 3.419424276595494 ] } },
{ "type": "Feature", "properties": { "ID": 3926, "X": 1065918.137, "Y": 869892.7551, "Codigo": "AI012516", "Fecha": "2024-10-07", "Año": 2024, "dia_sem": 1, "Tipo_Confi": "Lesiones", "direccion": "CALLE 83  , CARRERA 28", "No_Vehicul": 1, "Tipo_de_Ve": "CAMIONETA", "comuna": 14, "nombre": "Comuna 14", "id_barrio": 1401, "barrio": "Alfonso Bonilla Aragón" }, "geometry": { "type": "Point", "coordinates": [ -76.484316763039615, 3.419424276595494 ] } },
{ "type": "Feature", "properties": { "ID": 3948, "X": 1066364.0, "Y": 869909.3, "Codigo": "AI031717", "Fecha": "2025-11-30", "Año": 2025, "dia_sem": 7, "Tipo_Confi": "Lesiones", "direccion": "CALLE 91 CARRERA 27", "No_Vehicul": 1, "Tipo_de_Ve": "MOTOCICLETA", "comuna": 14, "nombre": "Comuna 14", "id_barrio": 1401, "barrio": "Alfonso Bonilla Aragón" }, "geometry": { "type": "Point", "coordinates": [ -76.480304537311326, 3.41957139185024 ] } },
{ "type": "Feature", "properties": { "ID": 3969, "X": 1066339.723, "Y": 869932.9071, "Codigo": "<Null>", "Fecha": "2023-09-18", "Año": 2023, "dia_sem": 1, "Tipo_Confi": "Lesiones", "direccion": "Calle 91 Con Carrera 27", "No_Vehicul": 3, "Tipo_de_Ve": "MOTOCICLETA,MOTOCICLETA", "comuna": 14, "nombre": "Comuna 14", "id_barrio": 1401, "barrio": "Alfonso Bonilla Aragón" }, "geometry": { "type": "Point", "coordinates": [ -76.480522863725625, 3.41978500443088 ] } },
{ "type": "Feature", "properties": { "ID": 3972, "X": 1065451.46, "Y": 869934.0985, "Codigo": "<Null>", "Fecha": "2023-02-12", "Año": 2023, "dia_sem": 7, "Tipo_Confi": "Lesiones", "direccion": "Carrera 28D Calle 72Z3", "No_Vehicul": 2, "Tipo_de_Ve": "MOTOCICLETA,MOTOCICLETA", "comuna": 13, "nombre": "Comuna 13", "id_barrio": 1304, "barrio": "El Poblado II" }, "geometry": { "type": "Point", "coordinates": [ -76.488515967635223, 3.419800737273236 ] } },
{ "type": "Feature", "properties": { "ID": 4032, "X": 1065371.04, "Y": 869984.415, "Codigo": "AI009012", "Fecha": "2024-07-07", "Año": 2024, "dia_sem": 7, "Tipo_Confi": "Lesiones", "direccion": "CALLE 72 Z , CARRERA 28 D", "No_Vehicul": 1, "Tipo_de_Ve": "MOTOCICLETA", "comuna": 13, "nombre": "Comuna 13", "id_barrio": 1304, "barrio": "El Poblado II" }, "geometry": { "type": "Point", "coordinates": [ -76.489239357123296, 3.420256189619994 ] } },
{ "type": "Feature", "properties": { "ID": 4033, "X": 1065486.03, "Y": 869948.5222, "Codigo": null, "Fecha": "2024-07-07", "Año": 2024, "dia_sem": 7, "Tipo_Confi": "Mortal", "direccion": "KR 28D FRENTE AL PREDIO 72Z3-21", "No_Vehicul": 1, "Tipo_de_Ve": "PEATON, MOTOCICLETA", "comuna": 13, "nombre": "Comuna 13", "id_barrio": 1304, "barrio": "El Poblado II" }, "geometry": { "type": "Point", "coordinates": [ -76.488204806679676, 3.419930977453258 ] } },
{ "type": "Feature", "properties": { "ID": 4034, "X": 1065373.425, "Y": 869989.1532, "Codigo": "AI012805", "Fecha": "2024-10-15", "Año": 2024, "dia_sem": 2, "Tipo_Confi": "Lesiones", "direccion": "CARRERA 28 D , CALLE 72 Z", "No_Vehicul": 1, "Tipo_de_Ve": "MOTOCICLETA", "comuna": 13, "nombre": "Comuna 13", "id_barrio": 1304, "barrio": "El Poblado II" }, "geometry": { "type": "Point", "coordinates": [ -76.489217869349503, 3.420299023437845 ] } },
{ "type": "Feature", "properties": { "ID": 4046, "X": 1065361.824, "Y": 869999.7939, "Codigo": "<Null>", "Fecha": "2023-03-01", "Año": 2023, "dia_sem": 3, "Tipo_Confi": "Lesiones", "direccion": "Calle 72Z Con Carrera 28D", "No_Vehicul": 2, "Tipo_de_Ve": "MOTOCICLETA,MOTOCICLETA", "comuna": 13, "nombre": "Comuna 13", "id_barrio": 1304, "barrio": "El Poblado II" }, "geometry": { "type": "Point", "coordinates": [ -76.489322203437766, 3.420395310395606 ] } },
{ "type": "Feature", "properties": { "ID": 4074, "X": 1065356.8, "Y": 870015.0, "Codigo": "AI023256", "Fecha": "2025-06-09", "Año": 2025, "dia_sem": 1, "Tipo_Confi": "Lesiones", "direccion": "CARRERA 28 D CALLE 72 Y", "No_Vehicul": 1, "Tipo_de_Ve": "MOTOCICLETA", "comuna": 13, "nombre": "Comuna 13", "id_barrio": 1304, "barrio": "El Poblado II" }, "geometry": { "type": "Point", "coordinates": [ -76.489367328593687, 3.420532845339276 ] } },
{ "type": "Feature", "properties": { "ID": 4089, "X": 1066272.454, "Y": 870022.9305, "Codigo": "<Null>", "Fecha": "2023-06-25", "Año": 2023, "dia_sem": 7, "Tipo_Confi": "Lesiones", "direccion": "Calle 88 Con Carrera 27", "No_Vehicul": 2, "Tipo_de_Ve": "MOTOCICLETA", "comuna": 14, "nombre": "Comuna 14", "id_barrio": 1401, "barrio": "Alfonso Bonilla Aragón" }, "geometry": { "type": "Point", "coordinates": [ -76.481127686104088, 3.420599452989396 ] } },
{ "type": "Feature", "properties": { "ID": 4094, "X": 1066339.209, "Y": 870070.2667, "Codigo": "AI005461", "Fecha": "2024-04-06", "Año": 2024, "dia_sem": 6, "Tipo_Confi": "Lesiones", "direccion": "CALLE 88  , CARRERA 26 t", "No_Vehicul": 0, "Tipo_de_Ve": "AUTOMOVIL,MOTOCICLETA", "comuna": 14, "nombre": "Comuna 14", "id_barrio": 1401, "barrio": "Alfonso Bonilla Aragón" }, "geometry": { "type": "Point", "coordinates": [ -76.480526720600992, 3.421027133336794 ] } },
{ "type": "Feature", "properties": { "ID": 4095, "X": 1066415.193, "Y": 870002.1982, "Codigo": "AI005952", "Fecha": "2024-04-17", "Año": 2024, "dia_sem": 3, "Tipo_Confi": "Lesiones", "direccion": "CALLE 91  , CARRERA 26 P", "No_Vehicul": 1, "Tipo_de_Ve": "CAMION", "comuna": 14, "nombre": "Comuna 14", "id_barrio": 1401, "barrio": "Alfonso Bonilla Aragón" }, "geometry": { "type": "Point", "coordinates": [ -76.479843352997051, 3.420411170848806 ] } },
{ "type": "Feature", "properties": { "ID": 4096, "X": 1066257.23, "Y": 870032.4473, "Codigo": "AI010541", "Fecha": "2024-08-18", "Año": 2024, "dia_sem": 7, "Tipo_Confi": "Lesiones", "direccion": "CARRERA 27  , CALLE 87", "No_Vehicul": 2, "Tipo_de_Ve": "MOTOCICLETA,MOTOCICLETA", "comuna": 14, "nombre": "Comuna 14", "id_barrio": 1401, "barrio": "Alfonso Bonilla Aragón" }, "geometry": { "type": "Point", "coordinates": [ -76.481264627425702, 3.420685597747501 ] } },
{ "type": "Feature", "properties": { "ID": 4098, "X": 1065733.7, "Y": 870028.2, "Codigo": "AI032872", "Fecha": "2025-12-22", "Año": 2025, "dia_sem": 1, "Tipo_Confi": "Lesiones", "direccion": "CARRERA 28 A CALLE 73", "No_Vehicul": 2, "Tipo_de_Ve": "AUTOMOVIL,MOTOCICLETA", "comuna": 14, "nombre": "Comuna 14", "id_barrio": 1401, "barrio": "Alfonso Bonilla Aragón" }, "geometry": { "type": "Point", "coordinates": [ -76.485975684019564, 3.420650117948403 ] } },
{ "type": "Feature", "properties": { "ID": 4117, "X": 1066256.662, "Y": 870041.133, "Codigo": "AI021498", "Fecha": "2025-05-02", "Año": 2025, "dia_sem": 5, "Tipo_Confi": "Lesiones", "direccion": "CALLE 86 A CARRERA 27", "No_Vehicul": 2, "Tipo_de_Ve": "MOTOCICLETA,MOTOCICLETA", "comuna": 14, "nombre": "Comuna 14", "id_barrio": 1401, "barrio": "Alfonso Bonilla Aragón" }, "geometry": { "type": "Point", "coordinates": [ -76.481269690091764, 3.420764144666884 ] } },
{ "type": "Feature", "properties": { "ID": 4148, "X": 1066230.389, "Y": 870060.5964, "Codigo": "AI015790", "Fecha": "2024-12-20", "Año": 2024, "dia_sem": 5, "Tipo_Confi": "Lesiones", "direccion": "CARRERA 27  , CALLE 86", "No_Vehicul": 2, "Tipo_de_Ve": "AUTOMOVIL,BICICLETA", "comuna": 14, "nombre": "Comuna 14", "id_barrio": 1401, "barrio": "Alfonso Bonilla Aragón" }, "geometry": { "type": "Point", "coordinates": [ -76.48150600131649, 3.420940297333882 ] } },
{ "type": "Feature", "properties": { "ID": 4162, "X": 1066201.6, "Y": 870066.8, "Codigo": "AI027276", "Fecha": "2025-08-31", "Año": 2025, "dia_sem": 7, "Tipo_Confi": "Lesiones", "direccion": "CALLE 85 CARRERA 27", "No_Vehicul": 1, "Tipo_de_Ve": "MOTOCICLETA", "comuna": 14, "nombre": "Comuna 14", "id_barrio": 1401, "barrio": "Alfonso Bonilla Aragón" }, "geometry": { "type": "Point", "coordinates": [ -76.481765027128844, 3.420996557303954 ] } },
{ "type": "Feature", "properties": { "ID": 4166, "X": 1065283.6, "Y": 870077.9, "Codigo": "<Null>", "Fecha": "2023-04-17", "Año": 2023, "dia_sem": 2, "Tipo_Confi": "Mortal", "direccion": "KR 28D CL 72W", "No_Vehicul": 1, "Tipo_de_Ve": "MOTOCICLETA,", "comuna": 13, "nombre": "Comuna 13", "id_barrio": 1304, "barrio": "El Poblado II" }, "geometry": { "type": "Point", "coordinates": [ -76.490025679865496, 3.421102048494986 ] } },
{ "type": "Feature", "properties": { "ID": 4171, "X": 1065257.564, "Y": 870067.2171, "Codigo": "AI002708", "Fecha": "2024-02-04", "Año": 2024, "dia_sem": 7, "Tipo_Confi": "Lesiones", "direccion": "CALLE 72 W CARRERA 28 D", "No_Vehicul": 2, "Tipo_de_Ve": "CAMIONETA,MOTOCICLETA", "comuna": 13, "nombre": "Comuna 13", "id_barrio": 1304, "barrio": "El Poblado II" }, "geometry": { "type": "Point", "coordinates": [ -76.490260026390757, 3.421005588206004 ] } },
{ "type": "Feature", "properties": { "ID": 4172, "X": 1065259.762, "Y": 870062.4018, "Codigo": "AI002936", "Fecha": "2024-02-08", "Año": 2024, "dia_sem": 4, "Tipo_Confi": "Lesiones", "direccion": "CARRERA 28 D CALLE 72 W", "No_Vehicul": 1, "Tipo_de_Ve": "BUS", "comuna": 13, "nombre": "Comuna 13", "id_barrio": 1304, "barrio": "El Poblado II" }, "geometry": { "type": "Point", "coordinates": [ -76.490240273957667, 3.420962031805283 ] } },
{ "type": "Feature", "properties": { "ID": 4173, "X": 1065257.617, "Y": 870067.5509, "Codigo": "AI003137", "Fecha": "2024-02-12", "Año": 2024, "dia_sem": 1, "Tipo_Confi": "Lesiones", "direccion": "CALLE 72W CARRERA 28D", "No_Vehicul": 2, "Tipo_de_Ve": "MOTOCICLETA,MOTOCICLETA", "comuna": 13, "nombre": "Comuna 13", "id_barrio": 1304, "barrio": "El Poblado II" }, "geometry": { "type": "Point", "coordinates": [ -76.49025954762746, 3.421008606430626 ] } },
{ "type": "Feature", "properties": { "ID": 4174, "X": 1065258.105, "Y": 870101.3988, "Codigo": "AI005978", "Fecha": "2024-04-18", "Año": 2024, "dia_sem": 4, "Tipo_Confi": "Lesiones", "direccion": "CALLE 72 w , CARRERA 28 d", "No_Vehicul": 2, "Tipo_de_Ve": "AUTOMOVIL,MOTOCICLETA", "comuna": 13, "nombre": "Comuna 13", "id_barrio": 1304, "barrio": "El Poblado II" }, "geometry": { "type": "Point", "coordinates": [ -76.490254970005481, 3.421314686675959 ] } },
{ "type": "Feature", "properties": { "ID": 4175, "X": 1065258.403, "Y": 870101.991, "Codigo": "AI009588", "Fecha": "2024-07-22", "Año": 2024, "dia_sem": 1, "Tipo_Confi": "Lesiones", "direccion": "CARRERA 28 D , CALLE 72 W", "No_Vehicul": 1, "Tipo_de_Ve": "MOTOCICLETA", "comuna": 13, "nombre": "Comuna 13", "id_barrio": 1304, "barrio": "El Poblado II" }, "geometry": { "type": "Point", "coordinates": [ -76.490252285160309, 3.421320040228915 ] } },
{ "type": "Feature", "properties": { "ID": 4185, "X": 1065258.403, "Y": 870100.807, "Codigo": "AI014875", "Fecha": "2024-12-02", "Año": 2024, "dia_sem": 1, "Tipo_Confi": "Lesiones", "direccion": "CARRERA 28 D , CALLE 72 W", "No_Vehicul": 2, "Tipo_de_Ve": "MOTOCICLETA,AUTOMOVIL", "comuna": 13, "nombre": "Comuna 13", "id_barrio": 1304, "barrio": "El Poblado II" }, "geometry": { "type": "Point", "coordinates": [ -76.490252291677479, 3.421309333443417 ] } },
{ "type": "Feature", "properties": { "ID": 4186, "X": 1065258.403, "Y": 870100.807, "Codigo": "AI014997", "Fecha": "2024-12-05", "Año": 2024, "dia_sem": 4, "Tipo_Confi": "Lesiones", "direccion": "CALLE 72 W , CARRERA 28 D", "No_Vehicul": 2, "Tipo_de_Ve": "CAMIONETA,MOTOCICLETA", "comuna": 13, "nombre": "Comuna 13", "id_barrio": 1304, "barrio": "El Poblado II" }, "geometry": { "type": "Point", "coordinates": [ -76.490252291677479, 3.421309333443417 ] } },
{ "type": "Feature", "properties": { "ID": 4194, "X": 1066190.4, "Y": 870113.1, "Codigo": "AI028941", "Fecha": "2025-10-04", "Año": 2025, "dia_sem": 6, "Tipo_Confi": "Lesiones", "direccion": "CARRERA 27 CALLE 84", "No_Vehicul": 1, "Tipo_de_Ve": "MOTOCICLETA", "comuna": 14, "nombre": "Comuna 14", "id_barrio": 1401, "barrio": "Alfonso Bonilla Aragón" }, "geometry": { "type": "Point", "coordinates": [ -76.481865552878688, 3.421415305457716 ] } },
{ "type": "Feature", "properties": { "ID": 4197, "X": 1066161.964, "Y": 870113.6965, "Codigo": "<Null>", "Fecha": "2023-08-18", "Año": 2023, "dia_sem": 5, "Tipo_Confi": "Daños", "direccion": "Calle 84 Con Kr 27", "No_Vehicul": 2, "Tipo_de_Ve": "AUTOMOVIL,AUTOMOVIL", "comuna": 14, "nombre": "Comuna 14", "id_barrio": 1401, "barrio": "Alfonso Bonilla Aragón" }, "geometry": { "type": "Point", "coordinates": [ -76.482121433638952, 3.421420859044777 ] } },
{ "type": "Feature", "properties": { "ID": 4201, "X": 1065668.171, "Y": 870161.586, "Codigo": "AI008248", "Fecha": "2024-06-15", "Año": 2024, "dia_sem": 6, "Tipo_Confi": "Lesiones", "direccion": "CARRERA 28  , CALLE 73", "No_Vehicul": 2, "Tipo_de_Ve": "MOTOCICLETA,CAMIONETA", "comuna": 14, "nombre": "Comuna 14", "id_barrio": 1401, "barrio": "Alfonso Bonilla Aragón" }, "geometry": { "type": "Point", "coordinates": [ -76.486564614236244, 3.4218566773509 ] } },
{ "type": "Feature", "properties": { "ID": 4202, "X": 1065721.035, "Y": 870076.934, "Codigo": "AI012758", "Fecha": "2024-10-14", "Año": 2024, "dia_sem": 1, "Tipo_Confi": "Lesiones", "direccion": "CALLE 73  , CARRERA 28", "No_Vehicul": 2, "Tipo_de_Ve": "BUS,MOTOCICLETA", "comuna": 14, "nombre": "Comuna 14", "id_barrio": 1401, "barrio": "Alfonso Bonilla Aragón" }, "geometry": { "type": "Point", "coordinates": [ -76.486089381120934, 3.421090884521655 ] } },
{ "type": "Feature", "properties": { "ID": 4203, "X": 1065721.035, "Y": 870076.934, "Codigo": "AI013302", "Fecha": "2024-10-27", "Año": 2024, "dia_sem": 7, "Tipo_Confi": "Lesiones", "direccion": "CALLE 73  , CARRERA 28", "No_Vehicul": 3, "Tipo_de_Ve": "MOTOCICLETA,AUTOMOVIL,AUTOMOVIL", "comuna": 14, "nombre": "Comuna 14", "id_barrio": 1401, "barrio": "Alfonso Bonilla Aragón" }, "geometry": { "type": "Point", "coordinates": [ -76.486089381120934, 3.421090884521655 ] } },
{ "type": "Feature", "properties": { "ID": 4204, "X": 1066172.831, "Y": 870101.583, "Codigo": "AI000001587", "Fecha": "2024-01-06", "Año": 2024, "dia_sem": 6, "Tipo_Confi": "Lesiones", "direccion": "CARRERA 27  CALLE 84", "No_Vehicul": 1, "Tipo_de_Ve": "MOTOCICLETA", "comuna": 14, "nombre": "Comuna 14", "id_barrio": 1401, "barrio": "Alfonso Bonilla Aragón" }, "geometry": { "type": "Point", "coordinates": [ -76.482023713501633, 3.421311257172611 ] } },
{ "type": "Feature", "properties": { "ID": 4205, "X": 1066132.412, "Y": 870125.6659, "Codigo": "AI002407", "Fecha": "2024-01-28", "Año": 2024, "dia_sem": 7, "Tipo_Confi": "Lesiones", "direccion": "CALLE 83 CARRERA 27", "No_Vehicul": 2, "Tipo_de_Ve": "MOTOCICLETA,MOTOCICLETA", "comuna": 14, "nombre": "Comuna 14", "id_barrio": 1401, "barrio": "Alfonso Bonilla Aragón" }, "geometry": { "type": "Point", "coordinates": [ -76.482387293406489, 3.421529262592439 ] } },
{ "type": "Feature", "properties": { "ID": 4206, "X": 1066151.168, "Y": 870136.4383, "Codigo": "AI008172", "Fecha": "2024-06-13", "Año": 2024, "dia_sem": 4, "Tipo_Confi": "Lesiones", "direccion": "CARRERA 27  , CALLE 83", "No_Vehicul": 2, "Tipo_de_Ve": "MOTOCICLETA,MOTOCICLETA", "comuna": 14, "nombre": "Comuna 14", "id_barrio": 1401, "barrio": "Alfonso Bonilla Aragón" }, "geometry": { "type": "Point", "coordinates": [ -76.482218455590612, 3.421626570953268 ] } },
{ "type": "Feature", "properties": { "ID": 4207, "X": 1066177.699, "Y": 870110.0413, "Codigo": "AI009305", "Fecha": "2024-07-15", "Año": 2024, "dia_sem": 1, "Tipo_Confi": "Lesiones", "direccion": "CALLE 84  , CARRERA 27", "No_Vehicul": 1, "Tipo_de_Ve": "AUTOMOVIL", "comuna": 14, "nombre": "Comuna 14", "id_barrio": 1401, "barrio": "Alfonso Bonilla Aragón" }, "geometry": { "type": "Point", "coordinates": [ -76.481979861124756, 3.421387717255583 ] } },
{ "type": "Feature", "properties": { "ID": 4208, "X": 1066149.976, "Y": 870137.6231, "Codigo": "AI013266", "Fecha": "2024-10-27", "Año": 2024, "dia_sem": 7, "Tipo_Confi": "Lesiones", "direccion": "CARRERA 27  , CALLE 83", "No_Vehicul": 2, "Tipo_de_Ve": "AUTOMOVIL,MOTOCICLETA", "comuna": 14, "nombre": "Comuna 14", "id_barrio": 1401, "barrio": "Alfonso Bonilla Aragón" }, "geometry": { "type": "Point", "coordinates": [ -76.482229175309101, 3.42163729164167 ] } },
{ "type": "Feature", "properties": { "ID": 4211, "X": 1066150.9, "Y": 870124.5, "Codigo": "AI030761", "Fecha": "2025-11-11", "Año": 2025, "dia_sem": 2, "Tipo_Confi": "Lesiones", "direccion": "CALLE 83 CARRERA 27", "No_Vehicul": 2, "Tipo_de_Ve": "AUTOMOVIL,MOTOCICLETA", "comuna": 14, "nombre": "Comuna 14", "id_barrio": 1401, "barrio": "Alfonso Bonilla Aragón" }, "geometry": { "type": "Point", "coordinates": [ -76.482220933831627, 3.421518615842533 ] } },
{ "type": "Feature", "properties": { "ID": 4212, "X": 1065233.489, "Y": 870124.6349, "Codigo": "AI018928", "Fecha": "2025-03-07", "Año": 2025, "dia_sem": 5, "Tipo_Confi": "Daños", "direccion": "CARRERA 28 D , CARRERA 72 V", "No_Vehicul": 2, "Tipo_de_Ve": "AUTOMOVIL,AUTOMOVIL", "comuna": 13, "nombre": "Comuna 13", "id_barrio": 1304, "barrio": "El Poblado II" }, "geometry": { "type": "Point", "coordinates": [ -76.490476351914083, 3.421524944389771 ] } },
{ "type": "Feature", "properties": { "ID": 4232, "X": 1066160.8, "Y": 870141.1, "Codigo": null, "Fecha": "2025-10-04", "Año": 2025, "dia_sem": 7, "Tipo_Confi": "Mortal", "direccion": "KR 27 CL 83", "No_Vehicul": 1, "Tipo_de_Ve": "PEATÓN,MOTOCICLETA", "comuna": 14, "nombre": "Comuna 14", "id_barrio": 1401, "barrio": "Alfonso Bonilla Aragón" }, "geometry": { "type": "Point", "coordinates": [ -76.482131755070512, 3.421668672129216 ] } },
{ "type": "Feature", "properties": { "ID": 4246, "X": 1065155.7, "Y": 870144.9, "Codigo": "AI021855", "Fecha": "2025-05-09", "Año": 2025, "dia_sem": 5, "Tipo_Confi": "Lesiones", "direccion": "CALLE 72 U CARRERA 28 D", "No_Vehicul": 2, "Tipo_de_Ve": "AUTOMOVIL,MOTOCICLETA", "comuna": 13, "nombre": "Comuna 13", "id_barrio": 1304, "barrio": "El Poblado II" }, "geometry": { "type": "Point", "coordinates": [ -76.491176233554199, 3.421708629445711 ] } },
{ "type": "Feature", "properties": { "ID": 4247, "X": 1065155.7, "Y": 870144.9, "Codigo": "AI023335", "Fecha": "2025-06-11", "Año": 2025, "dia_sem": 3, "Tipo_Confi": "Lesiones", "direccion": "CALLE 72 U CARRERA 28 D", "No_Vehicul": 2, "Tipo_de_Ve": "MOTOCICLETA,MOTOCICLETA", "comuna": 13, "nombre": "Comuna 13", "id_barrio": 1304, "barrio": "El Poblado II" }, "geometry": { "type": "Point", "coordinates": [ -76.491176233554199, 3.421708629445711 ] } },
{ "type": "Feature", "properties": { "ID": 4248, "X": 1065155.7, "Y": 870144.9, "Codigo": "AI026324", "Fecha": "2025-08-13", "Año": 2025, "dia_sem": 3, "Tipo_Confi": "Lesiones", "direccion": "CALLE 72 U CARRERA 28 D", "No_Vehicul": 2, "Tipo_de_Ve": "BICICLETA,MOTOCICLETA", "comuna": 13, "nombre": "Comuna 13", "id_barrio": 1304, "barrio": "El Poblado II" }, "geometry": { "type": "Point", "coordinates": [ -76.491176233554199, 3.421708629445711 ] } },
{ "type": "Feature", "properties": { "ID": 4249, "X": 1065155.7, "Y": 870144.9, "Codigo": "AI027297", "Fecha": "2025-09-01", "Año": 2025, "dia_sem": 1, "Tipo_Confi": "Lesiones", "direccion": "CALLE 72 U CARRERA 28 D", "No_Vehicul": 1, "Tipo_de_Ve": "BUSETA", "comuna": 13, "nombre": "Comuna 13", "id_barrio": 1304, "barrio": "El Poblado II" }, "geometry": { "type": "Point", "coordinates": [ -76.491176233554199, 3.421708629445711 ] } },
{ "type": "Feature", "properties": { "ID": 4251, "X": 1065164.188, "Y": 870149.0348, "Codigo": "AI016078", "Fecha": "2024-12-27", "Año": 2024, "dia_sem": 5, "Tipo_Confi": "Lesiones", "direccion": "CARRERA 28 D , CALLE 72 U", "No_Vehicul": 2, "Tipo_de_Ve": "MOTOCICLETA,AUTOMOVIL", "comuna": 13, "nombre": "Comuna 13", "id_barrio": 1304, "barrio": "El Poblado II" }, "geometry": { "type": "Point", "coordinates": [ -76.491099830588212, 3.421745973120113 ] } },
{ "type": "Feature", "properties": { "ID": 4254, "X": 1065172.3, "Y": 870152.1, "Codigo": "AI028588", "Fecha": "2025-09-28", "Año": 2025, "dia_sem": 7, "Tipo_Confi": "Lesiones", "direccion": "CALLE 72 U CARRERA 28 D", "No_Vehicul": 2, "Tipo_de_Ve": "MOTOCICLETA,AUTOMOVIL", "comuna": 13, "nombre": "Comuna 13", "id_barrio": 1304, "barrio": "El Poblado II" }, "geometry": { "type": "Point", "coordinates": [ -76.491026816976714, 3.421773646584951 ] } },
{ "type": "Feature", "properties": { "ID": 4255, "X": 1065172.3, "Y": 870152.1, "Codigo": "AI028626", "Fecha": "2025-09-28", "Año": 2025, "dia_sem": 7, "Tipo_Confi": "Lesiones", "direccion": "CALLE 72 U CARRERA 28 D", "No_Vehicul": 2, "Tipo_de_Ve": "MOTOCICLETA,MOTOCICLETA", "comuna": 13, "nombre": "Comuna 13", "id_barrio": 1304, "barrio": "El Poblado II" }, "geometry": { "type": "Point", "coordinates": [ -76.491026816976714, 3.421773646584951 ] } },
{ "type": "Feature", "properties": { "ID": 4256, "X": 1066104.542, "Y": 870153.8678, "Codigo": "<Null>", "Fecha": "2023-08-24", "Año": 2023, "dia_sem": 4, "Tipo_Confi": "Lesiones", "direccion": "Carrera 27 Con Calle 82", "No_Vehicul": 2, "Tipo_de_Ve": "AUTOMOVIL,MOTOCICLETA", "comuna": 14, "nombre": "Comuna 14", "id_barrio": 1401, "barrio": "Alfonso Bonilla Aragón" }, "geometry": { "type": "Point", "coordinates": [ -76.482637927081299, 3.421784445210395 ] } },
{ "type": "Feature", "properties": { "ID": 4258, "X": 1065145.517, "Y": 870160.8017, "Codigo": "<Null>", "Fecha": "2023-10-06", "Año": 2023, "dia_sem": 5, "Tipo_Confi": "Lesiones", "direccion": "Calle 72U Con Carrera 28D", "No_Vehicul": 2, "Tipo_de_Ve": "CAMION", "comuna": 13, "nombre": "Comuna 13", "id_barrio": 1304, "barrio": "El Poblado II" }, "geometry": { "type": "Point", "coordinates": [ -76.491267779053715, 3.42185248308501 ] } },
{ "type": "Feature", "properties": { "ID": 4259, "X": 1065145.517, "Y": 870160.8017, "Codigo": "<Null>", "Fecha": "2023-10-25", "Año": 2023, "dia_sem": 3, "Tipo_Confi": "Lesiones", "direccion": "Calle 72u Con Carrera 28d", "No_Vehicul": 2, "Tipo_de_Ve": "AUTOMOVIL,MOTOCICLETA", "comuna": 13, "nombre": "Comuna 13", "id_barrio": 1304, "barrio": "El Poblado II" }, "geometry": { "type": "Point", "coordinates": [ -76.491267779053715, 3.42185248308501 ] } },
{ "type": "Feature", "properties": { "ID": 4268, "X": 1066120.979, "Y": 870163.8, "Codigo": "AI014757", "Fecha": "2024-11-30", "Año": 2024, "dia_sem": 6, "Tipo_Confi": "Lesiones", "direccion": "CALLE 82  , CARRERA 27", "No_Vehicul": 2, "Tipo_de_Ve": "MOTOCICLETA,MOTOCICLETA", "comuna": 14, "nombre": "Comuna 14", "id_barrio": 1401, "barrio": "Alfonso Bonilla Aragón" }, "geometry": { "type": "Point", "coordinates": [ -76.482489961677686, 3.421874168782943 ] } },
{ "type": "Feature", "properties": { "ID": 4271, "X": 1065183.4, "Y": 870166.0, "Codigo": "AI021260", "Fecha": "2025-04-27", "Año": 2025, "dia_sem": 7, "Tipo_Confi": "Lesiones", "direccion": "CARRERA 28 D CALLE 72 U", "No_Vehicul": 2, "Tipo_de_Ve": "MOTOCICLETA,MOTOCICLETA", "comuna": 13, "nombre": "Comuna 13", "id_barrio": 1304, "barrio": "El Poblado II" }, "geometry": { "type": "Point", "coordinates": [ -76.490926855921643, 3.421899281482065 ] } },
{ "type": "Feature", "properties": { "ID": 4272, "X": 1065183.4, "Y": 870166.0, "Codigo": "AI028772", "Fecha": "2025-10-01", "Año": 2025, "dia_sem": 3, "Tipo_Confi": "Lesiones", "direccion": "CARRERA 28 D CALLE 72 U", "No_Vehicul": 2, "Tipo_de_Ve": "MOTOCICLETA,MOTOCICLETA", "comuna": 13, "nombre": "Comuna 13", "id_barrio": 1304, "barrio": "El Poblado II" }, "geometry": { "type": "Point", "coordinates": [ -76.490926855921643, 3.421899281482065 ] } },
{ "type": "Feature", "properties": { "ID": 4273, "X": 1065183.4, "Y": 870166.0, "Codigo": "AI031648", "Fecha": "2025-11-28", "Año": 2025, "dia_sem": 5, "Tipo_Confi": "Lesiones", "direccion": "CARRERA 28 D CALLE 72 U", "No_Vehicul": 2, "Tipo_de_Ve": "AUTOMOVIL,MOTOCICLETA", "comuna": 13, "nombre": "Comuna 13", "id_barrio": 1304, "barrio": "El Poblado II" }, "geometry": { "type": "Point", "coordinates": [ -76.490926855921643, 3.421899281482065 ] } },
{ "type": "Feature", "properties": { "ID": 4274, "X": 1065183.4, "Y": 870166.0, "Codigo": "<Null>", "Fecha": "2023-04-17", "Año": 2023, "dia_sem": 2, "Tipo_Confi": "Mortal", "direccion": "KR 28D CL 72U", "No_Vehicul": 1, "Tipo_de_Ve": "MOTOCICLETA,", "comuna": 13, "nombre": "Comuna 13", "id_barrio": 1304, "barrio": "El Poblado II" }, "geometry": { "type": "Point", "coordinates": [ -76.490926855921643, 3.421899281482065 ] } },
{ "type": "Feature", "properties": { "ID": 4276, "X": 1066131.8, "Y": 870168.6, "Codigo": "AI027548", "Fecha": "2025-09-06", "Año": 2025, "dia_sem": 6, "Tipo_Confi": "Lesiones", "direccion": "CARRERA 27 CALLE 82", "No_Vehicul": 1, "Tipo_de_Ve": "MOTOCICLETA", "comuna": 14, "nombre": "Comuna 14", "id_barrio": 1401, "barrio": "Alfonso Bonilla Aragón" }, "geometry": { "type": "Point", "coordinates": [ -76.482392561031901, 3.421917513945782 ] } },
{ "type": "Feature", "properties": { "ID": 4277, "X": 1065664.222, "Y": 870171.3742, "Codigo": "<Null>", "Fecha": "2023-06-10", "Año": 2023, "dia_sem": 6, "Tipo_Confi": "Lesiones", "direccion": "Calle 73 Con Carrera 28", "No_Vehicul": 2, "Tipo_de_Ve": "MOTOCICLETA,MOTOCICLETA", "comuna": 13, "nombre": "Comuna 13", "id_barrio": 1304, "barrio": "El Poblado II" }, "geometry": { "type": "Point", "coordinates": [ -76.48660009551736, 3.421945212921931 ] } },
{ "type": "Feature", "properties": { "ID": 4278, "X": 1065663.746, "Y": 870171.6917, "Codigo": "<Null>", "Fecha": "2023-01-23", "Año": 2023, "dia_sem": 1, "Tipo_Confi": "Lesiones", "direccion": "Calle 73 Con Carrera 28", "No_Vehicul": 2, "Tipo_de_Ve": "MOTOCICLETA", "comuna": 13, "nombre": "Comuna 13", "id_barrio": 1304, "barrio": "El Poblado II" }, "geometry": { "type": "Point", "coordinates": [ -76.486604377096398, 3.421948086688405 ] } },
{ "type": "Feature", "properties": { "ID": 4283, "X": 1066095.4, "Y": 870176.1, "Codigo": "AI028628", "Fecha": "2025-09-29", "Año": 2025, "dia_sem": 1, "Tipo_Confi": "Lesiones", "direccion": "CALLE 81 CARRERA 27", "No_Vehicul": 1, "Tipo_de_Ve": "MOTOCICLETA", "comuna": 14, "nombre": "Comuna 14", "id_barrio": 1401, "barrio": "Alfonso Bonilla Aragón" }, "geometry": { "type": "Point", "coordinates": [ -76.482720068327453, 3.421985539570521 ] } },
{ "type": "Feature", "properties": { "ID": 4292, "X": 1066082.969, "Y": 870179.2819, "Codigo": "AI016551", "Fecha": "2025-01-12", "Año": 2025, "dia_sem": 7, "Tipo_Confi": "Lesiones", "direccion": "CARRERA 27  , CALLE 81", "No_Vehicul": 1, "Tipo_de_Ve": "MOTOCICLETA", "comuna": 14, "nombre": "Comuna 14", "id_barrio": 1401, "barrio": "Alfonso Bonilla Aragón" }, "geometry": { "type": "Point", "coordinates": [ -76.482831912223034, 3.422014382763727 ] } },
{ "type": "Feature", "properties": { "ID": 4293, "X": 1066082.969, "Y": 870179.2819, "Codigo": "AI016170", "Fecha": "2024-12-30", "Año": 2024, "dia_sem": 1, "Tipo_Confi": "Lesiones", "direccion": "CARRERA 27  , CALLE 81", "No_Vehicul": 1, "Tipo_de_Ve": "MOTOCICLETA", "comuna": 14, "nombre": "Comuna 14", "id_barrio": 1401, "barrio": "Alfonso Bonilla Aragón" }, "geometry": { "type": "Point", "coordinates": [ -76.482831912223034, 3.422014382763727 ] } },
{ "type": "Feature", "properties": { "ID": 4294, "X": 1066078.534, "Y": 870182.9535, "Codigo": "<Null>", "Fecha": "2023-02-01", "Año": 2023, "dia_sem": 3, "Tipo_Confi": "Lesiones", "direccion": "Calle 81 Con Carrera 27", "No_Vehicul": 1, "Tipo_de_Ve": "MOTOCICLETA", "comuna": 14, "nombre": "Comuna 14", "id_barrio": 1401, "barrio": "Alfonso Bonilla Aragón" }, "geometry": { "type": "Point", "coordinates": [ -76.48287180056127, 3.42204760945157 ] } },
{ "type": "Feature", "properties": { "ID": 4295, "X": 1066078.534, "Y": 870182.9535, "Codigo": "<Null>", "Fecha": "2023-07-16", "Año": 2023, "dia_sem": 7, "Tipo_Confi": "Lesiones", "direccion": "Calle 81 Kr 27", "No_Vehicul": 2, "Tipo_de_Ve": "MOTOCICLETA,MOTOCICLETA", "comuna": 14, "nombre": "Comuna 14", "id_barrio": 1401, "barrio": "Alfonso Bonilla Aragón" }, "geometry": { "type": "Point", "coordinates": [ -76.48287180056127, 3.42204760945157 ] } },
{ "type": "Feature", "properties": { "ID": 4302, "X": 1065696.7, "Y": 870183.5, "Codigo": "AI027464", "Fecha": "2025-09-05", "Año": 2025, "dia_sem": 5, "Tipo_Confi": "Lesiones", "direccion": "CALLE 73 CARRERA 27 G", "No_Vehicul": 1, "Tipo_de_Ve": "MOTOCICLETA", "comuna": 13, "nombre": "Comuna 13", "id_barrio": 1304, "barrio": "El Poblado II" }, "geometry": { "type": "Point", "coordinates": [ -76.486307771496911, 3.422054684310107 ] } },
{ "type": "Feature", "properties": { "ID": 4313, "X": 1065220.151, "Y": 870209.3256, "Codigo": "AI000001562", "Fecha": "2024-01-05", "Año": 2024, "dia_sem": 5, "Tipo_Confi": "Lesiones", "direccion": "CALLE 72 U  CARRERA 28 B3", "No_Vehicul": 2, "Tipo_de_Ve": "BUSETA,MOTOCICLETA", "comuna": 13, "nombre": "Comuna 13", "id_barrio": 1305, "barrio": "Los Comuneros II" }, "geometry": { "type": "Point", "coordinates": [ -76.490595909416243, 3.422290867126633 ] } },
{ "type": "Feature", "properties": { "ID": 4314, "X": 1065156.563, "Y": 870150.2531, "Codigo": "AI003114", "Fecha": "2024-02-12", "Año": 2024, "dia_sem": 1, "Tipo_Confi": "Lesiones", "direccion": "CALLE 72U CARRERA 28D", "No_Vehicul": 2, "Tipo_de_Ve": "AUTOMOVIL,MOTOCICLETA", "comuna": 13, "nombre": "Comuna 13", "id_barrio": 1305, "barrio": "Los Comuneros II" }, "geometry": { "type": "Point", "coordinates": [ -76.491168438327094, 3.421757032197908 ] } },
{ "type": "Feature", "properties": { "ID": 4315, "X": 1065203.531, "Y": 870147.9734, "Codigo": "AI004653", "Fecha": "2024-03-17", "Año": 2024, "dia_sem": 7, "Tipo_Confi": "Lesiones", "direccion": "CARRERA 28 d 72 u", "No_Vehicul": 2, "Tipo_de_Ve": "MOTOCICLETA,MOTOCICLETA", "comuna": 13, "nombre": "Comuna 13", "id_barrio": 1305, "barrio": "Los Comuneros II" }, "geometry": { "type": "Point", "coordinates": [ -76.490745803951242, 3.42173615758945 ] } },
{ "type": "Feature", "properties": { "ID": 4316, "X": 1065162.996, "Y": 870147.85, "Codigo": "AI006968", "Fecha": "2024-05-13", "Año": 2024, "dia_sem": 2, "Tipo_Confi": "Lesiones", "direccion": "CALLE 72 U , CARRERA 28 D", "No_Vehicul": 2, "Tipo_de_Ve": "MOTOCICLETA,BUSETA", "comuna": 13, "nombre": "Comuna 13", "id_barrio": 1305, "barrio": "Los Comuneros II" }, "geometry": { "type": "Point", "coordinates": [ -76.491110563449453, 3.421735265683493 ] } },
{ "type": "Feature", "properties": { "ID": 4317, "X": 1065162.996, "Y": 870152.5878, "Codigo": "AI008587", "Fecha": "2024-06-23", "Año": 2024, "dia_sem": 7, "Tipo_Confi": "Lesiones", "direccion": "CARRERA 28 d , CALLE 72 u", "No_Vehicul": 1, "Tipo_de_Ve": "MOTOCICLETA", "comuna": 13, "nombre": "Comuna 13", "id_barrio": 1305, "barrio": "Los Comuneros II" }, "geometry": { "type": "Point", "coordinates": [ -76.491110537405575, 3.421778109108914 ] } },
{ "type": "Feature", "properties": { "ID": 4318, "X": 1065161.803, "Y": 870146.6655, "Codigo": "AI009730", "Fecha": "2024-07-27", "Año": 2024, "dia_sem": 6, "Tipo_Confi": "Lesiones", "direccion": "CALLE 72 U , CARRERA 28 D", "No_Vehicul": 2, "Tipo_de_Ve": "MOTOCICLETA,BICICLETA", "comuna": 13, "nombre": "Comuna 13", "id_barrio": 1305, "barrio": "Los Comuneros II" }, "geometry": { "type": "Point", "coordinates": [ -76.491121305307416, 3.421724560965102 ] } },
{ "type": "Feature", "properties": { "ID": 4319, "X": 1065161.803, "Y": 870149.0344, "Codigo": "AI010029", "Fecha": "2024-08-03", "Año": 2024, "dia_sem": 6, "Tipo_Confi": "Lesiones", "direccion": "CALLE 72 U , CARRERA 28 D", "No_Vehicul": 1, "Tipo_de_Ve": "MOTOCICLETA", "comuna": 13, "nombre": "Comuna 13", "id_barrio": 1305, "barrio": "Los Comuneros II" }, "geometry": { "type": "Point", "coordinates": [ -76.491121292285811, 3.421745982677864 ] } },
{ "type": "Feature", "properties": { "ID": 4320, "X": 1065165.381, "Y": 870144.2967, "Codigo": null, "Fecha": "2024-05-13", "Año": 2024, "dia_sem": 1, "Tipo_Confi": "Mortal", "direccion": "KR 28D CL 72U", "No_Vehicul": 2, "Tipo_de_Ve": "Motocicleta,BUS", "comuna": 13, "nombre": "Comuna 13", "id_barrio": 1305, "barrio": "Los Comuneros II" }, "geometry": { "type": "Point", "coordinates": [ -76.491089121287473, 3.421703120391561 ] } },
{ "type": "Feature", "properties": { "ID": 4321, "X": 1065162.996, "Y": 870149.0345, "Codigo": "AI010530", "Fecha": "2024-08-18", "Año": 2024, "dia_sem": 7, "Tipo_Confi": "Lesiones", "direccion": "CALLE 72 U , CARRERA 28 D", "No_Vehicul": 2, "Tipo_de_Ve": "AUTOMOVIL,CAMPERO", "comuna": 13, "nombre": "Comuna 13", "id_barrio": 1305, "barrio": "Los Comuneros II" }, "geometry": { "type": "Point", "coordinates": [ -76.491110556938239, 3.421745976991997 ] } },
{ "type": "Feature", "properties": { "ID": 4322, "X": 1065161.803, "Y": 870146.6655, "Codigo": "AI010593", "Fecha": "2024-08-20", "Año": 2024, "dia_sem": 2, "Tipo_Confi": "Lesiones", "direccion": "CARRERA 28 D , CALLE 72 U", "No_Vehicul": 2, "Tipo_de_Ve": "MOTOCICLETA,MOTOCICLETA", "comuna": 13, "nombre": "Comuna 13", "id_barrio": 1305, "barrio": "Los Comuneros II" }, "geometry": { "type": "Point", "coordinates": [ -76.491121305307416, 3.421724560965102 ] } },
{ "type": "Feature", "properties": { "ID": 4323, "X": 1065092.724, "Y": 870210.5792, "Codigo": "AI011913", "Fecha": "2024-09-21", "Año": 2024, "dia_sem": 6, "Tipo_Confi": "Lesiones", "direccion": "CALLE 72 T , CARRERA 28 D", "No_Vehicul": 1, "Tipo_de_Ve": "MOTOCICLETA", "comuna": 13, "nombre": "Comuna 13", "id_barrio": 1305, "barrio": "Los Comuneros II" }, "geometry": { "type": "Point", "coordinates": [ -76.491742569631427, 3.422302907257665 ] } },
{ "type": "Feature", "properties": { "ID": 4324, "X": 1065164.188, "Y": 870149.0348, "Codigo": "AI012790", "Fecha": "2024-10-15", "Año": 2024, "dia_sem": 2, "Tipo_Confi": "Lesiones", "direccion": "CARRERA 28 D , CALLE 72 U", "No_Vehicul": 1, "Tipo_de_Ve": "MOTOCICLETA", "comuna": 13, "nombre": "Comuna 13", "id_barrio": 1305, "barrio": "Los Comuneros II" }, "geometry": { "type": "Point", "coordinates": [ -76.491099830588212, 3.421745973120113 ] } },
{ "type": "Feature", "properties": { "ID": 4343, "X": 1065089.834, "Y": 870212.5588, "Codigo": "<Null>", "Fecha": "2023-08-12", "Año": 2023, "dia_sem": 6, "Tipo_Confi": "Daños", "direccion": "Calle 72T Con Kr 28D", "No_Vehicul": 4, "Tipo_de_Ve": "AUTOMOVIL,AUTOMOVIL,AUTOMOVIL,AUTOMOVIL", "comuna": 13, "nombre": "Comuna 13", "id_barrio": 1305, "barrio": "Los Comuneros II" }, "geometry": { "type": "Point", "coordinates": [ -76.491768564773636, 3.422320824523065 ] } },
{ "type": "Feature", "properties": { "ID": 4344, "X": 1065738.145, "Y": 870212.9452, "Codigo": "AI016222", "Fecha": "2024-12-31", "Año": 2024, "dia_sem": 2, "Tipo_Confi": "Lesiones", "direccion": "CALLE 73  , CARRERA 27 E", "No_Vehicul": 1, "Tipo_de_Ve": "CAMIONETA", "comuna": 14, "nombre": "Comuna 14", "id_barrio": 1401, "barrio": "Alfonso Bonilla Aragón" }, "geometry": { "type": "Point", "coordinates": [ -76.485934660828363, 3.422320722981247 ] } },
{ "type": "Feature", "properties": { "ID": 4345, "X": 1065224.436, "Y": 870213.73, "Codigo": "AI023579", "Fecha": "2025-06-15", "Año": 2025, "dia_sem": 7, "Tipo_Confi": "Lesiones", "direccion": "CALLE 72 U CARRERA 28 B2", "No_Vehicul": 1, "Tipo_de_Ve": "MOTOCICLETA", "comuna": 13, "nombre": "Comuna 13", "id_barrio": 1305, "barrio": "Los Comuneros II" }, "geometry": { "type": "Point", "coordinates": [ -76.490557326097445, 3.422330671950648 ] } },
{ "type": "Feature", "properties": { "ID": 4351, "X": 1065122.0, "Y": 870218.8, "Codigo": "AI020422", "Fecha": "2025-04-07", "Año": 2025, "dia_sem": 1, "Tipo_Confi": "Lesiones", "direccion": "CARRERA 28 D , CALLE 72 T", "No_Vehicul": 1, "Tipo_de_Ve": "MOTOCICLETA", "comuna": 13, "nombre": "Comuna 13", "id_barrio": 1305, "barrio": "Los Comuneros II" }, "geometry": { "type": "Point", "coordinates": [ -76.491479080850524, 3.422377085477551 ] } },
{ "type": "Feature", "properties": { "ID": 4358, "X": 1065993.917, "Y": 870263.551, "Codigo": "AI005452", "Fecha": "2024-04-06", "Año": 2024, "dia_sem": 6, "Tipo_Confi": "Lesiones", "direccion": "CALLE 78  , CARRERA 27", "No_Vehicul": 0, "Tipo_de_Ve": "MOTOCICLETA", "comuna": 14, "nombre": "Comuna 14", "id_barrio": 1401, "barrio": "Alfonso Bonilla Aragón" }, "geometry": { "type": "Point", "coordinates": [ -76.483632786689554, 3.42277691687801 ] } },
{ "type": "Feature", "properties": { "ID": 4359, "X": 1066066.906, "Y": 870213.2675, "Codigo": "AI006946", "Fecha": "2024-05-12", "Año": 2024, "dia_sem": 1, "Tipo_Confi": "Lesiones", "direccion": "CARRERA 27  , CALLE 80", "No_Vehicul": 3, "Tipo_de_Ve": "CAMIONETA,MOTOCICLETA,MOTOCICLETA", "comuna": 14, "nombre": "Comuna 14", "id_barrio": 1401, "barrio": "Alfonso Bonilla Aragón" }, "geometry": { "type": "Point", "coordinates": [ -76.482976267357515, 3.42232180048467 ] } },
{ "type": "Feature", "properties": { "ID": 4384, "X": 1066278.1, "Y": 870257.9, "Codigo": "AI029401", "Fecha": "2025-10-14", "Año": 2025, "dia_sem": 2, "Tipo_Confi": "Lesiones", "direccion": "CALLE 83 CARRERA 26 Q", "No_Vehicul": 2, "Tipo_de_Ve": "MOTOCICLETA,MOTOCICLETA", "comuna": 14, "nombre": "Comuna 14", "id_barrio": 1401, "barrio": "Alfonso Bonilla Aragón" }, "geometry": { "type": "Point", "coordinates": [ -76.481075566378237, 3.422724221808319 ] } },
{ "type": "Feature", "properties": { "ID": 4385, "X": 1065058.6, "Y": 870261.7, "Codigo": "AI028819", "Fecha": "2025-10-02", "Año": 2025, "dia_sem": 4, "Tipo_Confi": "Lesiones", "direccion": "CALLE 72 S CARRERA 28 D", "No_Vehicul": 1, "Tipo_de_Ve": "MOTOCICLETA", "comuna": 13, "nombre": "Comuna 13", "id_barrio": 1305, "barrio": "Los Comuneros II" }, "geometry": { "type": "Point", "coordinates": [ -76.492049357943586, 3.422765375609277 ] } },
{ "type": "Feature", "properties": { "ID": 4386, "X": 1066470.794, "Y": 870261.7045, "Codigo": "<Null>", "Fecha": "2023-03-04", "Año": 2023, "dia_sem": 6, "Tipo_Confi": "Daños", "direccion": "Carrera 26 P 9 Con Calle 93 - 59", "No_Vehicul": 2, "Tipo_de_Ve": "AUTOMOVIL", "comuna": 14, "nombre": "Comuna 14", "id_barrio": 1406, "barrio": "José Manuel Marroquín I" }, "geometry": { "type": "Point", "coordinates": [ -76.479341567705319, 3.422757540872256 ] } },
{ "type": "Feature", "properties": { "ID": 4387, "X": 1065987.507, "Y": 870266.4497, "Codigo": "<Null>", "Fecha": "2023-05-28", "Año": 2023, "dia_sem": 7, "Tipo_Confi": "Lesiones", "direccion": "Carrera 27 Con Calle 78", "No_Vehicul": 2, "Tipo_de_Ve": "MOTOCICLETA", "comuna": 14, "nombre": "Comuna 14", "id_barrio": 1401, "barrio": "Alfonso Bonilla Aragón" }, "geometry": { "type": "Point", "coordinates": [ -76.483690451651114, 3.422803165350317 ] } },
{ "type": "Feature", "properties": { "ID": 4402, "X": 1066626.845, "Y": 870270.0399, "Codigo": "<Null>", "Fecha": "2023-07-23", "Año": 2023, "dia_sem": 7, "Tipo_Confi": "Lesiones", "direccion": "Calle 103 Kr 26P8-96", "No_Vehicul": 2, "Tipo_de_Ve": "MOTOCICLETA", "comuna": 14, "nombre": "Comuna 14", "id_barrio": 1406, "barrio": "José Manuel Marroquín I" }, "geometry": { "type": "Point", "coordinates": [ -76.477937279773613, 3.42283203620342 ] } },
{ "type": "Feature", "properties": { "ID": 4406, "X": 1066475.521, "Y": 870280.9577, "Codigo": "<Null>", "Fecha": "2023-04-14", "Año": 2023, "dia_sem": 5, "Tipo_Confi": "Daños", "direccion": "KM 10 VÌA AL MAR", "No_Vehicul": 1, "Tipo_de_Ve": "AUTOMOVIL", "comuna": 14, "nombre": "Comuna 14", "id_barrio": 1406, "barrio": "José Manuel Marroquín I" }, "geometry": { "type": "Point", "coordinates": [ -76.479298923299723, 3.422931618505432 ] } },
{ "type": "Feature", "properties": { "ID": 4432, "X": 1065338.6, "Y": 870298.5, "Codigo": "AI028550", "Fecha": "2025-09-27", "Año": 2025, "dia_sem": 6, "Tipo_Confi": "Lesiones", "direccion": "CALLE 72 U CARRERA 28 B", "No_Vehicul": 2, "Tipo_de_Ve": "MOTOCICLETA,MOTOCICLETA", "comuna": 13, "nombre": "Comuna 13", "id_barrio": 1304, "barrio": "El Poblado II" }, "geometry": { "type": "Point", "coordinates": [ -76.489529540484668, 3.4230966059762 ] } },
{ "type": "Feature", "properties": { "ID": 4433, "X": 1065977.1, "Y": 870299.9, "Codigo": "AI020920", "Fecha": "2025-04-20", "Año": 2025, "dia_sem": 7, "Tipo_Confi": "Lesiones", "direccion": "CARRERA 27 CALLE 77", "No_Vehicul": 2, "Tipo_de_Ve": "AUTOMOVIL,MOTOCICLETA", "comuna": 14, "nombre": "Comuna 14", "id_barrio": 1401, "barrio": "Alfonso Bonilla Aragón" }, "geometry": { "type": "Point", "coordinates": [ -76.483783913968836, 3.423105710704427 ] } },
{ "type": "Feature", "properties": { "ID": 4448, "X": 1064961.0, "Y": 870316.3, "Codigo": "AI029708", "Fecha": "2025-10-20", "Año": 2025, "dia_sem": 1, "Tipo_Confi": "Lesiones", "direccion": "CALLE 72 P CARRERA 28 D", "No_Vehicul": 2, "Tipo_de_Ve": "MOTOCICLETA,AUTOMOVIL", "comuna": 13, "nombre": "Comuna 13", "id_barrio": 1305, "barrio": "Los Comuneros II" }, "geometry": { "type": "Point", "coordinates": [ -76.492927324538329, 3.423259655838021 ] } },
{ "type": "Feature", "properties": { "ID": 4449, "X": 1064961.0, "Y": 870316.3, "Codigo": "<Null>", "Fecha": "2023-02-13", "Año": 2023, "dia_sem": 2, "Tipo_Confi": "Mortal", "direccion": "CL 72P KR 28D", "No_Vehicul": 1, "Tipo_de_Ve": "PEATÓN,MOTOCICLETA", "comuna": 13, "nombre": "Comuna 13", "id_barrio": 1305, "barrio": "Los Comuneros II" }, "geometry": { "type": "Point", "coordinates": [ -76.492927324538329, 3.423259655838021 ] } },
{ "type": "Feature", "properties": { "ID": 4455, "X": 1064965.198, "Y": 870323.4742000001, "Codigo": "<Null>", "Fecha": "2023-09-24", "Año": 2023, "dia_sem": 7, "Tipo_Confi": "Lesiones", "direccion": "Carrera 28D Con Calle 72P10", "No_Vehicul": 1, "Tipo_de_Ve": "MOTOCICLETA", "comuna": 13, "nombre": "Comuna 13", "id_barrio": 1305, "barrio": "Los Comuneros II" }, "geometry": { "type": "Point", "coordinates": [ -76.492889508948608, 3.423324508261006 ] } },
{ "type": "Feature", "properties": { "ID": 4460, "X": 1064948.128, "Y": 870328.3483, "Codigo": "<Null>", "Fecha": "2023-01-11", "Año": 2023, "dia_sem": 3, "Tipo_Confi": "Lesiones", "direccion": "Calle 72p Con Carrera 28D", "No_Vehicul": 2, "Tipo_de_Ve": "AUTOMOVIL,AUTOMOVIL", "comuna": 13, "nombre": "Comuna 13", "id_barrio": 1305, "barrio": "Los Comuneros II" }, "geometry": { "type": "Point", "coordinates": [ -76.493043088882089, 3.423368678287567 ] } },
{ "type": "Feature", "properties": { "ID": 4461, "X": 1064948.128, "Y": 870328.3483, "Codigo": "<Null>", "Fecha": "2023-02-13", "Año": 2023, "dia_sem": 1, "Tipo_Confi": "Lesiones", "direccion": "Calle 72P Con Carrera 28D", "No_Vehicul": 2, "Tipo_de_Ve": "MOTOCICLETA", "comuna": 13, "nombre": "Comuna 13", "id_barrio": 1305, "barrio": "Los Comuneros II" }, "geometry": { "type": "Point", "coordinates": [ -76.493043088882089, 3.423368678287567 ] } },
{ "type": "Feature", "properties": { "ID": 4462, "X": 1064948.128, "Y": 870328.3483, "Codigo": "<Null>", "Fecha": "2023-05-02", "Año": 2023, "dia_sem": 2, "Tipo_Confi": "Lesiones", "direccion": "Calle 72P Con Carrera 28D", "No_Vehicul": 2, "Tipo_de_Ve": "MOTOCICLETA", "comuna": 13, "nombre": "Comuna 13", "id_barrio": 1305, "barrio": "Los Comuneros II" }, "geometry": { "type": "Point", "coordinates": [ -76.493043088882089, 3.423368678287567 ] } },
{ "type": "Feature", "properties": { "ID": 4463, "X": 1064948.128, "Y": 870328.3483, "Codigo": "<Null>", "Fecha": "2023-05-15", "Año": 2023, "dia_sem": 1, "Tipo_Confi": "Lesiones", "direccion": "Calle 72P Con Carrera 28D", "No_Vehicul": 2, "Tipo_de_Ve": "MOTOCICLETA", "comuna": 13, "nombre": "Comuna 13", "id_barrio": 1305, "barrio": "Los Comuneros II" }, "geometry": { "type": "Point", "coordinates": [ -76.493043088882089, 3.423368678287567 ] } },
{ "type": "Feature", "properties": { "ID": 4464, "X": 1064948.128, "Y": 870328.3483, "Codigo": "<Null>", "Fecha": "2023-08-01", "Año": 2023, "dia_sem": 2, "Tipo_Confi": "Lesiones", "direccion": "Calle 72P Con Carrera 28D", "No_Vehicul": 2, "Tipo_de_Ve": "MOTOCICLETA", "comuna": 13, "nombre": "Comuna 13", "id_barrio": 1305, "barrio": "Los Comuneros II" }, "geometry": { "type": "Point", "coordinates": [ -76.493043088882089, 3.423368678287567 ] } },
{ "type": "Feature", "properties": { "ID": 4465, "X": 1064948.128, "Y": 870328.3483, "Codigo": "<Null>", "Fecha": "2023-09-27", "Año": 2023, "dia_sem": 3, "Tipo_Confi": "Lesiones", "direccion": "Calle 72P Con Carrera 28D", "No_Vehicul": 2, "Tipo_de_Ve": "AUTOMOVIL,MOTOCICLETA", "comuna": 13, "nombre": "Comuna 13", "id_barrio": 1305, "barrio": "Los Comuneros II" }, "geometry": { "type": "Point", "coordinates": [ -76.493043088882089, 3.423368678287567 ] } },
{ "type": "Feature", "properties": { "ID": 4468, "X": 1064956.963, "Y": 870330.461, "Codigo": "AI018792", "Fecha": "2025-03-03", "Año": 2025, "dia_sem": 1, "Tipo_Confi": "Lesiones", "direccion": "CARRERA 28 D ,  CALLE 72P", "No_Vehicul": 1, "Tipo_de_Ve": "MOTOCICLETA", "comuna": 13, "nombre": "Comuna 13", "id_barrio": 1305, "barrio": "Los Comuneros II" }, "geometry": { "type": "Point", "coordinates": [ -76.492963574380511, 3.423387734545744 ] } },
{ "type": "Feature", "properties": { "ID": 4469, "X": 1064956.963, "Y": 870330.461, "Codigo": "AI015233", "Fecha": "2024-12-10", "Año": 2024, "dia_sem": 2, "Tipo_Confi": "Lesiones", "direccion": "CARRERA 28 D , CALLE 72 P", "No_Vehicul": 2, "Tipo_de_Ve": "MOTOCICLETA,AUTOMOVIL", "comuna": 13, "nombre": "Comuna 13", "id_barrio": 1305, "barrio": "Los Comuneros II" }, "geometry": { "type": "Point", "coordinates": [ -76.492963574380511, 3.423387734545744 ] } },
{ "type": "Feature", "properties": { "ID": 4475, "X": 1065918.5, "Y": 870333.1, "Codigo": "AI033181", "Fecha": "2025-12-28", "Año": 2025, "dia_sem": 7, "Tipo_Confi": "Lesiones", "direccion": "CALLE 75 CARRERA 27", "No_Vehicul": 2, "Tipo_de_Ve": "MOTOCICLETA,BICICLETA", "comuna": 14, "nombre": "Comuna 14", "id_barrio": 1401, "barrio": "Alfonso Bonilla Aragón" }, "geometry": { "type": "Point", "coordinates": [ -76.484311048144704, 3.423406262161676 ] } },
{ "type": "Feature", "properties": { "ID": 4485, "X": 1064977.5, "Y": 870345.9, "Codigo": "AI019541", "Fecha": "2025-03-19", "Año": 2025, "dia_sem": 3, "Tipo_Confi": "Lesiones", "direccion": "CARRERA 28 D , CALLE 72 P", "No_Vehicul": 1, "Tipo_de_Ve": "MOTOCICLETA", "comuna": 13, "nombre": "Comuna 13", "id_barrio": 1305, "barrio": "Los Comuneros II" }, "geometry": { "type": "Point", "coordinates": [ -76.492778684793663, 3.423527234668895 ] } },
{ "type": "Feature", "properties": { "ID": 4486, "X": 1064977.5, "Y": 870345.9, "Codigo": "AI027759", "Fecha": "2025-09-11", "Año": 2025, "dia_sem": 4, "Tipo_Confi": "Lesiones", "direccion": "CARRERA 28 D CALLE 72 P", "No_Vehicul": 2, "Tipo_de_Ve": "AUTOMOVIL,MOTOCICLETA", "comuna": 13, "nombre": "Comuna 13", "id_barrio": 1305, "barrio": "Los Comuneros II" }, "geometry": { "type": "Point", "coordinates": [ -76.492778684793663, 3.423527234668895 ] } },
{ "type": "Feature", "properties": { "ID": 4487, "X": 1064977.5, "Y": 870345.9, "Codigo": "<Null>", "Fecha": "2023-01-04", "Año": 2023, "dia_sem": 4, "Tipo_Confi": "Mortal", "direccion": "KR 28D CL 72P", "No_Vehicul": 1, "Tipo_de_Ve": "PEATÓN,MOTOCICLETA", "comuna": 13, "nombre": "Comuna 13", "id_barrio": 1305, "barrio": "Los Comuneros II" }, "geometry": { "type": "Point", "coordinates": [ -76.492778684793663, 3.423527234668895 ] } },
{ "type": "Feature", "properties": { "ID": 4488, "X": 1064977.5, "Y": 870345.9, "Codigo": "<Null>", "Fecha": "2023-05-10", "Año": 2023, "dia_sem": 4, "Tipo_Confi": "Mortal", "direccion": "KR 28D CL 72P", "No_Vehicul": 1, "Tipo_de_Ve": "PEATÓN,MOTOCICLETA", "comuna": 13, "nombre": "Comuna 13", "id_barrio": 1305, "barrio": "Los Comuneros II" }, "geometry": { "type": "Point", "coordinates": [ -76.492778684793663, 3.423527234668895 ] } },
{ "type": "Feature", "properties": { "ID": 4514, "X": 1065885.166, "Y": 870365.1082, "Codigo": "AI016359", "Fecha": "2025-01-06", "Año": 2025, "dia_sem": 1, "Tipo_Confi": "Lesiones", "direccion": "CALLE 74  , CARRERA 27", "No_Vehicul": 2, "Tipo_de_Ve": "MOTOCICLETA,MOTOCICLETA", "comuna": 14, "nombre": "Comuna 14", "id_barrio": 1401, "barrio": "Alfonso Bonilla Aragón" }, "geometry": { "type": "Point", "coordinates": [ -76.484610830119465, 3.423695894903058 ] } },
{ "type": "Feature", "properties": { "ID": 4515, "X": 1066655.582, "Y": 870370.5619, "Codigo": null, "Fecha": "2024-08-04", "Año": 2024, "dia_sem": 7, "Tipo_Confi": "Mortal", "direccion": "TV 103 ENTRE DG 26P6 Y 26P7", "No_Vehicul": 1, "Tipo_de_Ve": "PEATÓN,MOTOCICLETA", "comuna": 14, "nombre": "Comuna 14", "id_barrio": 1406, "barrio": "José Manuel Marroquín I" }, "geometry": { "type": "Point", "coordinates": [ -76.477678121441954, 3.423740881393733 ] } },
{ "type": "Feature", "properties": { "ID": 4516, "X": 1064948.098, "Y": 870328.3587, "Codigo": "AI003076", "Fecha": "2024-02-11", "Año": 2024, "dia_sem": 7, "Tipo_Confi": "Lesiones", "direccion": "CARRERA 28 D CALLE 72 P", "No_Vehicul": 2, "Tipo_de_Ve": "MOTOCICLETA,MOTOCICLETA", "comuna": 13, "nombre": "Comuna 13", "id_barrio": 1305, "barrio": "Los Comuneros II" }, "geometry": { "type": "Point", "coordinates": [ -76.493043358784064, 3.423368772498953 ] } },
{ "type": "Feature", "properties": { "ID": 4518, "X": 1064883.108, "Y": 870417.9433, "Codigo": "AI007454", "Fecha": "2024-05-25", "Año": 2024, "dia_sem": 7, "Tipo_Confi": "Lesiones", "direccion": "CARRERA 28 d , CALLE 72 m", "No_Vehicul": 1, "Tipo_de_Ve": "BUS", "comuna": 13, "nombre": "Comuna 13", "id_barrio": 1305, "barrio": "Los Comuneros II" }, "geometry": { "type": "Point", "coordinates": [ -76.493627689327113, 3.424179234731221 ] } },
{ "type": "Feature", "properties": { "ID": 4519, "X": 1064955.77, "Y": 870330.4606, "Codigo": "AI009869", "Fecha": "2024-07-30", "Año": 2024, "dia_sem": 2, "Tipo_Confi": "Lesiones", "direccion": "CARRERA 28 D , CALLE 72 P", "No_Vehicul": 1, "Tipo_de_Ve": "MOTOCICLETA", "comuna": 13, "nombre": "Comuna 13", "id_barrio": 1305, "barrio": "Los Comuneros II" }, "geometry": { "type": "Point", "coordinates": [ -76.49297430975156, 3.423387737501065 ] } },
{ "type": "Feature", "properties": { "ID": 4520, "X": 1064966.041, "Y": 870341.9318, "Codigo": null, "Fecha": "2024-07-14", "Año": 2024, "dia_sem": 7, "Tipo_Confi": "Mortal", "direccion": "KR 25D entre Cl 72P y Cl 72M", "No_Vehicul": 1, "Tipo_de_Ve": "PEATÓN,MOTOCICLETA", "comuna": 13, "nombre": "Comuna 13", "id_barrio": 1305, "barrio": "Los Comuneros II" }, "geometry": { "type": "Point", "coordinates": [ -76.492881821897214, 3.423491413792474 ] } },
{ "type": "Feature", "properties": { "ID": 4521, "X": 1064958.155, "Y": 870329.2762, "Codigo": "AI010500", "Fecha": "2024-08-17", "Año": 2024, "dia_sem": 6, "Tipo_Confi": "Lesiones", "direccion": "CARRERA 28 D , CALLE 72 P", "No_Vehicul": 2, "Tipo_de_Ve": "BICICLETA,MOTOCICLETA", "comuna": 13, "nombre": "Comuna 13", "id_barrio": 1305, "barrio": "Los Comuneros II" }, "geometry": { "type": "Point", "coordinates": [ -76.49295285450583, 3.423377013954103 ] } },
{ "type": "Feature", "properties": { "ID": 4522, "X": 1064956.963, "Y": 870330.461, "Codigo": "AI012984", "Fecha": "2024-10-21", "Año": 2024, "dia_sem": 1, "Tipo_Confi": "Lesiones", "direccion": "CALLE 72 P , CARRERA 28 D", "No_Vehicul": 1, "Tipo_de_Ve": "MOTOCICLETA", "comuna": 13, "nombre": "Comuna 13", "id_barrio": 1305, "barrio": "Los Comuneros II" }, "geometry": { "type": "Point", "coordinates": [ -76.492963574380511, 3.423387734545744 ] } },
{ "type": "Feature", "properties": { "ID": 4524, "X": 1065752.999, "Y": 870375.2671000001, "Codigo": "<Null>", "Fecha": "2023-10-14", "Año": 2023, "dia_sem": 6, "Tipo_Confi": "Lesiones", "direccion": "Calle 73 Con Carrera 27A1", "No_Vehicul": 2, "Tipo_de_Ve": "AUTOMOVIL,CAMPERO", "comuna": 13, "nombre": "Comuna 13", "id_barrio": 1307, "barrio": "Omar Torrijos" }, "geometry": { "type": "Point", "coordinates": [ -76.48580009474496, 3.423788498543348 ] } },
{ "type": "Feature", "properties": { "ID": 4561, "X": 1065829.7, "Y": 870411.1, "Codigo": "AI032138", "Fecha": "2025-12-08", "Año": 2025, "dia_sem": 1, "Tipo_Confi": "Lesiones", "direccion": "CALLE 73 CARRERA 27", "No_Vehicul": 2, "Tipo_de_Ve": "MOTOCICLETA,MOTOCICLETA", "comuna": 14, "nombre": "Comuna 14", "id_barrio": 1401, "barrio": "Alfonso Bonilla Aragón" }, "geometry": { "type": "Point", "coordinates": [ -76.485109692145713, 3.42411210326724 ] } },
{ "type": "Feature", "properties": { "ID": 4562, "X": 1065876.473, "Y": 870411.2153, "Codigo": "<Null>", "Fecha": "2023-10-28", "Año": 2023, "dia_sem": 6, "Tipo_Confi": "Lesiones", "direccion": "Calle 73-51 Con Carrera 27", "No_Vehicul": 2, "Tipo_de_Ve": "MOTOCICLETA", "comuna": 14, "nombre": "Comuna 14", "id_barrio": 1401, "barrio": "Alfonso Bonilla Aragón" }, "geometry": { "type": "Point", "coordinates": [ -76.484688798752217, 3.424112884617295 ] } },
{ "type": "Feature", "properties": { "ID": 4563, "X": 1066666.331, "Y": 870411.469, "Codigo": "AI019691", "Fecha": "2025-03-23", "Año": 2025, "dia_sem": 7, "Tipo_Confi": "Lesiones", "direccion": "TRANSVERSAL 103 DIAGONAL 26 p-5", "No_Vehicul": 2, "Tipo_de_Ve": "MOTOCICLETA,AUTOMOVIL", "comuna": 14, "nombre": "Comuna 14", "id_barrio": 1406, "barrio": "José Manuel Marroquín I" }, "geometry": { "type": "Point", "coordinates": [ -76.477581165170633, 3.424110738276364 ] } },
{ "type": "Feature", "properties": { "ID": 4570, "X": 1065835.9, "Y": 870415.1, "Codigo": "AI017946", "Fecha": "2025-02-14", "Año": 2025, "dia_sem": 5, "Tipo_Confi": "Lesiones", "direccion": "CALLE 73  , CARRERA 27", "No_Vehicul": 2, "Tipo_de_Ve": "MOTOCICLETA,AUTOMOVIL", "comuna": 14, "nombre": "Comuna 14", "id_barrio": 1401, "barrio": "Alfonso Bonilla Aragón" }, "geometry": { "type": "Point", "coordinates": [ -76.485053878429497, 3.424148240178485 ] } },
{ "type": "Feature", "properties": { "ID": 4571, "X": 1065835.9, "Y": 870415.1, "Codigo": "AI024180", "Fecha": "2025-06-29", "Año": 2025, "dia_sem": 7, "Tipo_Confi": "Lesiones", "direccion": "CALLE 73 CARRERA 27", "No_Vehicul": 1, "Tipo_de_Ve": "BUS", "comuna": 14, "nombre": "Comuna 14", "id_barrio": 1401, "barrio": "Alfonso Bonilla Aragón" }, "geometry": { "type": "Point", "coordinates": [ -76.485053878429497, 3.424148240178485 ] } },
{ "type": "Feature", "properties": { "ID": 4572, "X": 1065835.9, "Y": 870415.1, "Codigo": "AI026523", "Fecha": "2025-08-17", "Año": 2025, "dia_sem": 7, "Tipo_Confi": "Lesiones", "direccion": "CALLE 73 CARRERA 27", "No_Vehicul": 2, "Tipo_de_Ve": "AUTOMOVIL,MOTOCICLETA", "comuna": 14, "nombre": "Comuna 14", "id_barrio": 1401, "barrio": "Alfonso Bonilla Aragón" }, "geometry": { "type": "Point", "coordinates": [ -76.485053878429497, 3.424148240178485 ] } },
{ "type": "Feature", "properties": { "ID": 4573, "X": 1065835.9, "Y": 870415.1, "Codigo": "AI027659", "Fecha": "2025-09-08", "Año": 2025, "dia_sem": 1, "Tipo_Confi": "Lesiones", "direccion": "CALLE 73 CARRERA 27", "No_Vehicul": 3, "Tipo_de_Ve": "AUTOMOVIL,AUTOMOVIL,MOTOCICLETA", "comuna": 14, "nombre": "Comuna 14", "id_barrio": 1401, "barrio": "Alfonso Bonilla Aragón" }, "geometry": { "type": "Point", "coordinates": [ -76.485053878429497, 3.424148240178485 ] } },
{ "type": "Feature", "properties": { "ID": 4579, "X": 1064872.219, "Y": 870426.8398, "Codigo": "<Null>", "Fecha": "2023-01-28", "Año": 2023, "dia_sem": 6, "Tipo_Confi": "Lesiones", "direccion": "Carrera 28D Con Calle 72M", "No_Vehicul": 2, "Tipo_de_Ve": "AUTOMOVIL,MOTOCICLETA", "comuna": 13, "nombre": "Comuna 13", "id_barrio": 1305, "barrio": "Los Comuneros II" }, "geometry": { "type": "Point", "coordinates": [ -76.493725626810459, 3.424259744806408 ] } },
{ "type": "Feature", "properties": { "ID": 4589, "X": 1065398.433, "Y": 870429.9412, "Codigo": "<Null>", "Fecha": "2023-03-04", "Año": 2023, "dia_sem": 6, "Tipo_Confi": "Lesiones", "direccion": "Calle 72U Con Carrera 27-G11", "No_Vehicul": 2, "Tipo_de_Ve": "MOTOCICLETA", "comuna": 13, "nombre": "Comuna 13", "id_barrio": 1312, "barrio": "Rodrigo Lara Bonilla" }, "geometry": { "type": "Point", "coordinates": [ -76.488990400253627, 3.424284882679639 ] } },
{ "type": "Feature", "properties": { "ID": 4608, "X": 1065772.114, "Y": 870407.4622, "Codigo": "AI004667", "Fecha": "2024-03-18", "Año": 2024, "dia_sem": 1, "Tipo_Confi": "Lesiones", "direccion": "CARRERA 27 a , CALLE 73", "No_Vehicul": 2, "Tipo_de_Ve": "AUTOMOVIL,MOTOCICLETA", "comuna": 14, "nombre": "Comuna 14", "id_barrio": 1401, "barrio": "Alfonso Bonilla Aragón" }, "geometry": { "type": "Point", "coordinates": [ -76.485627907287451, 3.42407952850563 ] } },
{ "type": "Feature", "properties": { "ID": 4609, "X": 1065790.071, "Y": 870447.8811, "Codigo": "AI010066", "Fecha": "2024-08-04", "Año": 2024, "dia_sem": 7, "Tipo_Confi": "Lesiones", "direccion": "CARRERA 27  , CALLE 73", "No_Vehicul": 2, "Tipo_de_Ve": "MOTOCICLETA,CAMPERO", "comuna": 14, "nombre": "Comuna 14", "id_barrio": 1401, "barrio": "Alfonso Bonilla Aragón" }, "geometry": { "type": "Point", "coordinates": [ -76.485466094452292, 3.424444931755994 ] } },
{ "type": "Feature", "properties": { "ID": 4610, "X": 1065824.525, "Y": 870438.7756000001, "Codigo": "AI010577", "Fecha": "2024-08-20", "Año": 2024, "dia_sem": 2, "Tipo_Confi": "Lesiones", "direccion": "CALLE 73  , CARRERA 27", "No_Vehicul": 2, "Tipo_de_Ve": "MOTOCICLETA,MOTOCICLETA", "comuna": 14, "nombre": "Comuna 14", "id_barrio": 1401, "barrio": "Alfonso Bonilla Aragón" }, "geometry": { "type": "Point", "coordinates": [ -76.485156106249022, 3.424362399413545 ] } },